stop_id,stop_name,stop_code,zone_id
CRG2,CORGA,CRG2,MAI4
FMGO3,FORMIGUEIRO,FMGO3,MAI4
MRT2,MIRANTE,MRT2,MAI4
FMGO4,FORMIGUEIRO,FMGO4,MAI4
PCUA1,PÍCUA,PCUA1,MAI4
CRG1,CORGA,CRG1,MAI4
SRG2,SRA. DA GUADALUPE,SRG2,MAI4
LNC2,LEONARDO COIMBRA,LNC2,MAI1
PRD1,PARADA,PRD1,MAI4
AVLM1,AV.LIDADOR DA MAIA,AVLM1,MAI4
TRM1,TERRAMONTE,TRM1,MAI4
MAIE2,MAIA (ESTÁDIO),MAIE2,MAI1
PSP1,PSP,PSP1,MAI1
SBO2,SOBREIRO,SBO2,MAI1
VBR1,VISCONDE BARREIROS,VBR1,MAI1
MAIA4,MAIA (CAMARA),MAIA4,MAI1
VBR2,VISCONDE BARREIROS,VBR2,MAI1
PIN1,PINHEIRAL,PIN1,MAI1
PRU3,PEDRAS RUBRAS,PRU3,VCD8
SL1,SANTOS LEITE,SL1,MAI1
RCNH1,R.CONCHAS,RCNH1,MAI4
ARRG1,ARREGADAS,ARRG1,MAI4
ARRG2,ARREGADAS,ARRG2,MAI4
AGR2,AGRA,AGR2,MAI4
CZG1,CRUZ. GUARDEIRAS,CZG1,VCD8
GU1,GUARDA,GU1,MAI2
GU2,GUARDA,GU2,MAI2
GUD1,GUARDEIRAS,GUD1,VCD8
GDM11,GODIM,GDM11,MAI2
GDM12,GODIM,GDM12,MAI2
RCNH2,R. CONCHAS,RCNH2,MAI4
GNDV2,GONDIVINHO,GNDV2,MAI1
AMR2,AMOROSA,AMR2,MTS2
GSUL2,GONDIVAI (SUL),GSUL2,MAI1
CAL1,CAL,CAL1,MAI1
ESP1,ESPOSADE,ESP1,MAI1
EXP1,EXPONOR,EXP1,MTS2
EXP2,EXPONOR,EXP2,MTS2
GNDV1,GONDIVINHO,GNDV1,MAI1
BAT2,BATARIA,BAT2,MTS2
SR2,S. ROQUE,SR2,PRT3
STG4,SANTEGÃOS,STG4,MAI4
TMEI1,TV.MEIRAL,TMEI1,GDM1
FARM1,FORÇAS ARMADAS,FARM1,MAI4
AAS2,ANTÓNIO  AUG.SILVA,AAS2,GDM1
MED1,MEDANCELHE,MED1,MAI4
CTN1,CASTANHEIRA,CTN1,MAI4
CHV2,CHÃO VERDE,CHV2,GDM1
INFS2,INFANTE SANTO,INFS2,GDM1
STG3,SANTEGÃOS,STG3,MAI4
VFRR1,VALE FERREIROS,VFRR1,GDM1
ECC2,ENTRE CANCELAS,ECC2,GDM1
MTP2,MONTE PEDRO,MTP2,GDM1
ASRR4,ALTO DA SERRA,ASRR4,GDM1
VFRR2,VALE FERREIROS,VFRR2,GDM1
ECC1,ENTRE CANCELAS,ECC1,GDM1
SXO2,SEIXO,SXO2,GDM1
SXO1,SEIXO,SXO1,GDM1
CMPO1,IGREJA CAMPO,CMPO1,VLG3
TPT2,TV. DA PONTE,TPT2,PRT3
RF1,RIO FERREIRA,RF1,GDM2
ACD1,AFONSO CORDEIRO,ACD1,MTS1
ERM2,ERMESINDE (ESTAÇÃO),ERM2,MAI4
ERM3,ERMESINDE (ESTAÇÃO),ERM3,MAI4
PVH1,PAVILHÃO CPN,PVH1,MAI4
PTCR2,PORTO CARREIRO,PTCR2,MAI4
TVG1,TRAVAGEM,TVG1,MAI4
MSHP3,MAIASHOPPING,MSHP3,MAI4
SA3,SÁ,SA3,MAI4
SA4,SÁ,SA4,MAI4
FMGC1,FORMIGA CEMITÉRIO,FMGC1,MAI4
COVN2,COVINA,COVN2,MAI4
4CAM4,4 CAMINHOS,4CAM4,MAI4
MSHP4,MAIASHOPPING,MSHP4,MAI4
FND2,FUNDIÇÃO,FND2,MAI4
CHAO2,CHÃOS,CHAO2,MAI4
CHAO1,CHÃOS,CHAO1,MAI4
PHIP2,PEDRO HISPANO,PHIP2,MAI4
PVH2,PAVILHÃO CPN,PVH2,MAI4
CML2,CAMÉLIAS,CML2,MAI4
PINH1,PINHEIRO,PINH1,MAI4
VASG1,VASCO DA GAMA,VASG1,MAI4
GAN1,GANDRA,GAN1,MAI4
PML1,PALMILHEIRA,PML1,MAI4
CML1,CAMÉLIAS,CML1,MAI4
9AG2,9 DE AGOSTO,9AG2,MAI4
SONH,SONHOS,SONH,MAI4
ERMI1,ERMESINDE (IGREJA),ERMI1,MAI4
STNH2,SOUTINHO,STNH2,MAI4
COD,LGO DA CODICEIRA,COD,VLG2
TAZ1,TAPADA AZEVEDO,TAZ1,VLG1
FS1,FLOR DA SERRA,FS1,VLG1
ASRR3,ALTO DA SERRA,ASRR3,VLG1
CTS,CASTELOS,CTS,PRT1
CTV1,COTOVIAS,CTV1,PRT2
URBP2,URB. PRELADA,URBP2,PRT2
PREL4,PRELADA,PREL4,PRT1
BRCP2,BR. CAMPINAS,BRCP2,PRT2
QTL2,QUARTEL MILITAR,QTL2,PRT2
PNV2,PAULO NOVAIS,PNV2,PRT2
RBSS2,ROT. DO BESSA,RBSS2,PRT1
EZC2,EZEQUIEL CAMPOS,EZC2,PRT2
FTM1,FONTE DA MOURA,FTM1,PRT2
PRO2,PEREIRÓ,PRO2,PRT2
SDP1,SIDÓNIO PAIS,SDP1,PRT1
MPAZ1,MAN.P.AZEVEDO 1,MPAZ1,PRT2
RAEP2,ROT. A.E.P.,RAEP2,PRT2
PREC1,PRECIOSA,PREC1,PRT2
RSR1,R. DO SENHOR,RSR1,PRT2
EFRD1,ENG. FERREIRA DIAS,EFRD1,PRT2
MRS2,MOREIRA SÁ,MRS2,PRT1
RSR2,R. DO SENHOR,RSR2,PRT2
MTB1,MTE BURGOS (CIRC.),MTB1,PRT2
STLZ1,STA. LUZIA,STLZ1,PRT2
CNG1,CONGOSTAS,CNG1,PRT2
CSR2,C. SAÚDE RAMALDE,CSR2,PRT2
ANTG2,ANTUNES GUIMARÃES,ANTG2,PRT2
AV2,ALTO DO VISO,AV2,PRT2
BRSE2,BR. STO. EUGÉNIO,BRSE2,PRT2
URBP1,URB. PRELADA,URBP1,PRT2
SDP2,SIDÓNIO PAIS,SDP2,PRT1
LRD2,LORDELO,LRD2,PRT2
PCL1,PADRE LUIS CABRAL,PCL1,PRT2
VIS,VISO,VIS,MAI1
RGDU1,REGEDOURA,RGDU1,MTS1
CV2,CARVALHA,CV2,GDM1
VDAM1,VITORINO DAMASIO,VDAM1,PRT1
BS7,BOAVISTA - B.SUCESSO,BS7,PRT1
ERM4,ERMESINDE (FORUM),ERM4,MAI4
BIC3,BICALHO,BIC3,PRT1
PARR4,PONTE ARRÁBIDA,PARR4,PRT1
FLU6,FLUVIAL,FLU6,PRT2
DL5,D.LEONOR,DL5,PRT2
DL6,D.LEONOR,DL6,PRT2
PINM5,PINHEIRO MANSO,PINM5,PRT2
PINM6,PINHEIRO MANSO,PINM6,PRT2
SJB1,S. JOÃO DE BRITO,SJB1,PRT2
SJB2,S. JOÃO DE BRITO,SJB2,PRT2
FOR1,FÓRUM,FOR1,MAI1
FOR2,FÓRUM,FOR2,MAI1
RBHR1,R.BOA HORA,RBHR1,MTS1
RBHR2,R.BOA HORA,RBHR2,MTS1
RPPC1,R. PADRE PORTO CARRERO,RPPC1,MTS1
RPPC2,R. PADRE PORTO CARRERO,RPPC2,MTS1
PREG1,PESO DA RÉGUA,PREG1,PRT3
IGRL1,IGREJA DE LEÇA,IGRL1,MTS2
PCVL1,PERO COVILHÃ,PCVL1,MTS2
PCVL2,PERO COVILHÃ,PCVL2,MTS2
SOLP1,SOL POENTE,SOLP1,MTS2
BLM,BOLHÃO (METRO),BLM,PRT1
PNHL1,PINHAL,PNHL1,MAI4
PNHL2,PINHAL,PNHL2,MAI4
APRD2,ARCO DO PRADO,APRD2,VNG1
PISA1,PISÃO,PISA1,MAI4
PISA2,PISÃO,PISA2,MAI4
PMAI1,1º DE MAIO,PMAI1,MAI4
QULH2,QUELHAS,QULH2,MAI4
RARR1,ARROTEIA,RARR1,MAI4
RARR2,ARROTEIA,RARR2,MAI4
ARRV1,ARREGADAS (VIADUTO),ARRV1,MAI4
ARRV2,ARREGADAS (VIADUTO),ARRV2,MAI4
VESS2,VESSADA,VESS2,MAI4
TESC2,TV.ESCOLAS,TESC2,MAI4
VESS1,VESSADA,VESS1,MAI4
TESC1,TV.ESCOLAS,TESC1,MAI4
MAII1,MAIA (IGREJA),MAII1,MAI1
JQA2,JOAQUIM ANDRADE,JQA2,MTS2
PFTT1,PERAFITA,PFTT1,MTS2
GTN1,GATANHAL,GTN1,MTS2
GTN2,GATANHAL,GTN2,MTS2
TTS2,TV.TRÁS,TTS2,MTS2
BLD2,BALDÕES,BLD2,MTS2
LND1,C. C. LONDRES,LND1,PRT2
QCM2,QUATRO CAMINHOS,QCM2,PRT2
SETB1,SETE BICAS,SETB1,PRT2
RSH,SRA. DA HORA,RSH,PRT3
CIRC5,CIRCUNVALAÇÃO,CIRC5,PRT2
CONT,CONTINENTE,CONT,MTS1
PAP2,PADRE ANTÓNIO PORTO,PAP2,PRT2
QCM1,QUATRO CAMINHOS,QCM1,PRT2
RNSG2,R.NOVA S. GENS,RNSG2,MAI1
QCM3,QUATRO CAMINHOS,QCM3,PRT2
SRHE3,SRA.HORA (METRO),SRHE3,PRT2
ALMG2,ALMEIRIGA,ALMG2,MTS2
PTM1,PONTE DE MOREIRA,PTM1,MAI1
LFC,LEÇA F.CLUBE,LFC,MTS2
MGDE2,MONTE GRANDE,MGDE2,MAI1
MNSO2,MANSO,MNSO2,MAI1
MSB2,MONTE S.BRÁS,MSB2,MTS2
RGDI3,REGADIO,RGDI3,MTS1
FGTR1,FOGUETEIROS,FGTR1,MAI1
RFER1,R.FERROVIÁRIO,RFER1,MTS1
RGDU,REGEDOURA,RGDU,MTS1
PSSM1,PASSOS MANUEL,PSSM1,MTS1
PCRR2,PONTE CARRO,PCRR2,MTS1
ABL2,ABELHEIRA,ABL2,MTS1
ABL1,ABELHEIRA,ABL1,MTS1
LMBG2,LOMBA (GATÕES),LMBG2,MTS1
LMB2,LOMBA,LMB2,MTS1
GUIF1,GUIFÕES,GUIF1,MTS1
FSCA2,FRESCA,FSCA2,MTS2
QSTG1,QUINTA DE SANTIAGO,QSTG1,MTS2
PMV2,PONTE MOVEL,PMV2,MTS2
QSTG2,QUINTA DE SANTIAGO,QSTG2,MTS2
HIPD,HIPÓDROMO,HIPD,MTS2
PMV1,PONTE MOVEL,PMV1,MTS2
QTC2,Q.TA DA CONCEICÃO,QTC2,MTS2
APDL2,APDL,APDL2,MTS2
FSCA1,FRESCA,FSCA1,MTS2
STN2,SANTANA,STN2,MAI1
PP1,PONTE DA PEDRA,PP1,MAI1
CEMT1,CEMITÉRIO,CEMT1,MAI1
CEMT2,CEMITÉRIO,CEMT2,MAI1
PAUS2,PAUS,PAUS2,MTS1
ACB1,AREIAS CABEDELO,ACB1,VNG5
CCL,CANCELINHAS,CCL,VNG5
QCMN2,QUATRO CAMINHOS,QCMN2,VNG5
SCC1,SPORT CLUBE CANIDELO,SCC1,VNG5
ALUM1,ALUMIARA,ALUM1,VNG5
QCMN1,QUATRO CAMINHOS,QCMN1,VNG5
JMA,JOSÉ MARIA ALVES,JMA,VNG5
FTS2,FONTES,FTS2,VNG5
ACB2,AREIAS CABEDELO,ACB2,VNG5
ESPH1,ESPINHEIRO,ESPH1,VNG5
BGJ2,BRAGA JÚNIOR,BGJ2,VNG5
ELV1,ESTAMPARIA LAVADORES,ELV1,VNG5
ESPH2,ESPINHEIRO,ESPH2,VNG5
ELV2,ESTAMPARIA LAVADORES,ELV2,VNG5
PIC2,PICÃO,PIC2,VNG5
ALUM2,ALUMIARA,ALUM2,VNG5
JGD2,JORGE DIAS,JGD2,VNG5
LVP,LAVADORES (PRAIA),LVP,VNG5
AEC1,ALAM.EMPRESA,AEC1,VNG1
INFH2,INFANTE D.HENRIQUE,INFH2,VNG1
JA2,JARDINS DA ARRÁBIDA,JA2,VNG1
IPO2,INST. ONCOLOGIA,IPO2,PRT3
CONS2,CONSTITUIÇÃO,CONS2,PRT1
BRCV,BR.CARVALHIDO,BRCV,PRT1
BVLH3,BICA VELHA,BVLH3,PRT1
ARS8,AREOSA,ARS8,PRT3
AA1,ALTO DA AREOSA,AA1,PRT3
ASPL1,ASPRELA,ASPL1,MAI1
CI32,CINTURA INTERNA,CI32,PRT1
BJ1,BENTO JÚNIOR,BJ1,PRT1
GC11,GOMES COSTA 1,GC11,PRT2
PGM2,PAULO DA GAMA,PGM2,PRT2
LRD1,LORDELO,LRD1,PRT2
PFOZ2,PINHAIS DA FOZ,PFOZ2,PRT2
PFOZ1,PINHAIS DA FOZ,PFOZ1,PRT2
LGO4,LICEU GARCIA ORTA,LGO4,PRT2
MF1,MARTIM FREITAS,MF1,PRT2
PRCD3,PARQUE DA CIDADE,PRCD3,PRT2
LDD9,LIDADOR /HOSPITAL,LDD9,PRT2
NVT,NAVAS TOLOSA,NVT,PRT3
CRJ2,CORUJEIRA,CRJ2,PRT3
CNTM2,CONTUMIL (METRO),CNTM2,PRT3
ARNH2,AREINHO,ARNH2,PRT3
PQN2,PARQUE NASCENTE,PQN2,PRT3
PQN1,PARQUE NASCENTE,PQN1,PRT3
BCP1,BR.CERCO PORTO,BCP1,PRT3
JAE1,J.A.E.,JAE1,PRT1
JAE2,J.A.E.,JAE2,PRT1
EDP1,EDP,EDP1,PRT1
RNH1,RANHA,RNH1,PRT3
RNH2,RANHA,RNH2,PRT3
SP3,S. PEDRO,SP3,PRT3
TRH1,TORRINHA,TRH1,PRT1
TRH2,TORRINHA,TRH2,PRT1
BVBR2,BOAVISTA BRASÍLIA,BVBR2,PRT1
RA2,RAMADA ALTA,RA2,PRT1
CDF1,CEDOFEITA,CDF1,PRT1
CDF2,CEDOFEITA,CDF2,PRT1
LAPA2,LAPA,LAPA2,PRT1
PRR7,PR. DA REPÚBLICA,PRR7,PRT1
BCM3,BOAVISTA-CASA DA MÚSICA,BCM3,PRT1
MATR2,MATERNIDADE,MATR2,PRT1
MGB2,MIGUEL BOMBARDA,MGB2,PRT1
CRT1,CARTES,CRT1,PRT3
E109,ESTR.NACIONAL 109,E109,VNG4
LPDZ,L.GO 1º DEZEMBRO,LPDZ,PRT1
BTLH6,BATALHA,BTLH6,PRT1
BL4,BARROS LIMA,BL4,PRT1
C24A3,CAMPO 24 DE AGOSTO,C24A3,PRT1
ST3,S. TOMÉ,ST3,PRT3
ST4,S. TOMÉ,ST4,PRT3
SRHR,SRA. HORA,SRHR,PRT2
QBV1,QUINTA BELA VISTA,QBV1,VNG4
QBV2,QUINTA BELA VISTA,QBV2,VNG4
PCAR1,PRACETA AREIAS,PCAR1,GDM1
PCAR2,PRACETA AREIAS,PCAR2,GDM1
ROSA1,ROSÁRIO,ROSA1,VNG1
GSHP1,GAIASHOPPING,GSHP1,VNG1
GSHP2,GAIASHOPPING,GSHP2,VNG1
RMT1,R. DAS MATAS,RMT1,VNG1
RSMT2,R. SR MATOSINHOS,RSMT2,VNG1
MJP2,MAJOR PÁLA,MJP2,VNG1
GDR1,GANDARA,GDR1,VNG4
LGDM2,L. DOMINGOS MATOS,LGDM2,VNG1
CHAS1,CHÃS,CHAS1,VNG1
DISP1,DISPENSÁRIO,DISP1,VNG1
DV2,DEVESAS,DV2,VNG1
DVE1,DEVESAS (ESTAÇÃO),DVE1,VNG1
EC,ELECTROCERÂMICA,EC,VNG1
RMT2,R. DAS MATAS,RMT2,VNG1
JMRR2,JARDIM DO MORRO,JMRR2,VNG1
PMEL1,PEREIRA MELO,PMEL1,VNG4
NTRT2,NUNO TRISTÃO,NTRT2,VNG4
ISNT1,INFANTE SANTO,ISNT1,VNG4
ISNT2,INFANTE SANTO,ISNT2,VNG4
VGM1,VASCO GAMA,VGM1,VNG4
VGM2,VASCO GAMA,VGM2,VNG4
ACBL2,ÁLVARES CABRAL,ACBL2,VNG4
ISG1,INFANTE SAGRES,ISG1,VNG4
ISG2,INFANTE SAGRES,ISG2,VNG4
RNF1,R.NOVA DA FONTE,RNF1,MAI4
RNF2,R.NOVA DA FONTE,RNF2,MAI4
BOVT1,BOAVISTA,BOVT1,MAI4
VLR1,VILAR,VLR1,VLG2
AHRQ1,D.AFONSO HENRIQUES,AHRQ1,VLG2
PJGL1,PARQUE J. G. LARANJO,PJGL1,MTS1
PJGL2,PARQUE J. G. LARANJO,PJGL2,MTS1
BPTL1,BR. DA PASTELEIRA,BPTL1,PRT2
RCTL1,R.CRISTAL,RCTL1,MAI4
RCTL2,R.CRISTAL,RCTL2,MAI4
BPTL2,BR. DA PASTELEIRA,BPTL2,PRT2
FRX4,FREIXO,FRX4,PRT3
IGRT2,IGREJA RIO TINTO,IGRT2,MAI4
FOCO2,FOCO,FOCO2,PRT1
CNT3,CANTAREIRA,CNT3,PRT2
INF1,INFANTE,INF1,PRT1
CLVR1,CALVÁRIO,CLVR1,VLG1
CLVR2,CALVÁRIO,CLVR2,VLG1
SR1,S. ROQUE,SR1,PRT3
SR3,S. ROQUE,SR3,PRT3
SR5,S. ROQUE (CIRCUNV.),SR5,PRT3
MDL2,MADALENA (ESCOLAS),MDL2,VNG4
CCRN1,CRISTOVÃO CERNACHE,CCRN1,MAI1
CCRN2,CRISTOVÃO CERNACHE,CCRN2,MAI1
PBSS4,PINTO BESSA,PBSS4,PRT1
A25A1,AV. 25 DE ABRIL,A25A1,PRT1
FALC,FALCÃO,FALC,PRT3
CRT2,CARTES,CRT2,PRT3
PSG1,PEDRAS SALGADAS,PSG1,PRT3
CPTO1,CERCO DO PORTO,CPTO1,PRT3
SR6,S. ROQUE,SR6,PRT3
IGRA1,IGREJA DE ALFENA,IGRA1,VLG2
IGRA2,IGREJA DE ALFENA,IGRA2,VLG2
ALFN1,ALFENA,ALFN1,VLG2
ALFN2,ALFENA,ALFN2,VLG2
ALFN3,ALFENA,ALFN3,VLG2
EDRG1,ESTÁDIO DO DRAGÃO,EDRG1,PRT1
EDRG2,ESTÁDIO DO DRAGÃO,EDRG2,PRT1
PCRJ1,PR. DA CORUJEIRA,PCRJ1,PRT3
BCM1,BOAVISTA-CASA DA MÚSICA,BCM1,PRT1
CRTD,CARTÓDROMO,CRTD,MTS2
ABSS1,AV. DO BESSA,ABSS1,PRT1
ABSS2,AV. DO BESSA,ABSS2,PRT1
MFB2,MERC. FERR. BORGES,MFB2,PRT1
RCP1,R. CERCO DO PORTO,RCP1,PRT3
RCP2,R. CERCO DO PORTO,RCP2,PRT3
ZOID1,ZONA INDUSTRIAL,ZOID1,MAI1
ZOID2,ZONA INDUSTRIAL,ZOID2,MAI1
SOCR,SOARES CORREIA,SOCR,PRT1
QSPL1,QUARTEL SRR. PILAR,QSPL1,VNG1
QSPL2,QUARTEL SRR. PILAR,QSPL2,VNG1
TTS1,TV.TRÁS,TTS1,MTS2
LND2,C. C. LONDRES,LND2,PRT2
AVLH2,AVILHÓ,AVLH2,MAI1
AZC2,AZENHA DE CIMA,AZC2,MTS1
CRST1,CRASTO,CRST1,VNG4
CRVH1,CORDOARIA VELHA,CRVH1,PRT2
CVI2,CARVALHIDO,CVI2,PRT1
ARCO1,ARCO,ARCO1,MAI1
SO3,STO. OVÍDIO,SO3,VNG1
STNH1,SOUTINHO,STNH1,MAI4
TPI2,TV.PIAS,TPI2,MAI1
DPA1,DR.PORFÍRIO ANDRADE,DPA1,MAI4
ASOT1,ALTO DE SOUTELO,ASOT1,GDM1
CVN2,CAVADA NOVA,CVN2,GDM1
BH2,BELO HORIZONTE,BH2,GDM2
CB2,CARVALHA DE BAIXO,CB2,GDM1
RGLE2,ROD. GONÇALVES LAGE (ESTE),RGLE2,MAI4
5OTB2,5 DE OUTUBRO,5OTB2,MAI1
TEIB2,TEIBAS,TEIB2,MAI4
GLV2,GIL VICENTE,GLV2,MAI4
VN1,VIA NORTE,VN1,MAI1
CBMN,CABO MUNDO,CBMN,MTS2
APDL1,APDL,APDL1,MTS2
FTV1,FONTE VILA,FTV1,MTS2
PSOC2,PERPÉTUO SOCORRO,PSOC2,PRT1
MTB4,MONTE DOS BURGOS,MTB4,MAI1
SMAT1,SENHOR MATOSINHOS,SMAT1,MTS1
EDM2,ESTR. D. MIGUEL,EDM2,GDM1
MSTO1,MONSANTO,MSTO1,PRT1
RL2,RIO LEÇA,RL2,MAI1
BTC2,BOTICA,BTC2,VCD8
BRBQ4,BAIRRO DA BIQUINHA,BRBQ4,MTS1
CSRT3,C.SAÚDE RIO TINTO,CSRT3,MAI4
CSRT4,C.SAÚDE DE RIO TINTO,CSRT4,MAI4
DCS3,DAVID CORREIA DA SILVA,DCS3,MAI4
DCS4,DAVID CORREIA DA SILVA,DCS4,MAI4
PRFL,PR.FILIPA DE LENCASTRE,PRFL,PRT1
CLRG,CLÉRIGOS,CLRG,PRT1
PING3,PRAIA DOS INGLESES,PING3,PRT2
PORI2,PRAIA DO OURIGO,PORI2,PRT2
HMCH1,HENRIQUE MACHADO,HMCH1,GDM1
CMP2,CAMPANHÃ,CMP2,PRT1
AL1,AV. ALIADOS,AL1,PRT1
AL2,AV. ALIADOS,AL2,PRT1
AL3,AV. ALIADOS,AL3,PRT1
AL7,AV. ALIADOS,AL7,PRT1
VDE1,VILA D'ESTE,VDE1,VNG2
CSSM2,C. SAÚDE S. MAMEDE,CSSM2,MAI1
PCID2,PR. CID. SALVADOR,PCID2,PRT2
RSUL1,RECAREI (SUL),RSUL1,MAI1
RNOR1,RECAREI (NORTE),RNOR1,MAI1
MAKR4,MAKRO,MAKR4,VNG1
AUL1,AUGUSTO LESSA,AUL1,PRT1
AUL2,AUGUSTO LESSA,AUL2,PRT1
ALD1,ALDOAR JUNTA  FREG.,ALD1,PRT2
PCID4,PR. CID. SALVADOR,PCID4,PRT2
CFER2,CONDE FERREIRA,CFER2,VLG1
FTSR4,FONTE DA SENHORA,FTSR4,VLG1
FCR1,FERREIRA DA CRUZ,FCR1,MAI1
FCR2,FERREIRA DA CRUZ,FCR2,MAI1
AC4,ALTINO  COELHO,AC4,MAI1
CSR1,C. SAÚDE RAMALDE,CSR1,PRT2
MLAM,MARIA LAMAS,MLAM,PRT1
JAZ2,JERÓNIMO AZEVEDO,JAZ2,PRT2
LGO3,LICEU GARCIA ORTA,LGO3,PRT2
ALM2,ALAMEDA,ALM2,PRT1
BNJ2,BONJÓIA,BNJ2,PRT3
BCP2,BR.CERCO PORTO,BCP2,PRT3
MERL,MEIRAL,MERL,PRT3
BVCT1,BOAVISTA CORREIOS,BVCT1,PRT1
CMIC1,CAROLINA MICHAELIS,CMIC1,PRT1
CVI5,CARVALHIDO,CVI5,PRT1
PSG,PEDRAS SALGADAS,PSG,PRT3
NDA1,NOEDA,NDA1,PRT1
PCC2,PISCINA CAMPANHÃ,PCC2,PRT1
VLN1,VILA NOVA,VLN1,PRT2
TVG2,TRAVAGEM,TVG2,MAI4
FND1,FUNDIÇÃO,FND1,MAI4
VASG2,VASCO DA GAMA,VASG2,MAI4
PIC1,PICÃO,PIC1,VNG5
JGD1,JORGE DIAS,JGD1,VNG5
PCTO2,PRACETA OLIVEIRAS,PCTO2,VNG4
GENT2,GENERAL TORRES,GENT2,VNG1
ISS2,ISOLINO SOUSA,ISS2,VNG4
SAN1,STO. ANTÓNIO,SAN1,VNG4
MVTO1,MOINHO VENTO,MVTO1,VNG4
SALM1,SALGUEIRO MAIA,SALM1,VNG2
VIS4,VISO,VIS4,PRT2
TVFO2,TV.FORNO,TVFO2,MAI4
PMEL2,PEREIRA MELO,PMEL2,VNG4
FNTE1,FONTE,FNTE1,MAI4
ERMD1,ERMIDA,ERMD1,MAI4
PFMA2,PROF. MELO ADRIÃO,PFMA2,PRT2
1GTN1,GATANHAL,1GTN1,MTS2
RTP3,RTP,RTP3,VNG1
CBMN2,CABO MUNDO,CBMN2,MTS2
PVC2,PÊRO VAZ CAMINHA,PVC2,PRT2
FCAS1,FERREIRA DE CASTRO,FCAS1,VNG1
DSS,DIONÍSIO SANTOS SILVA,DSS,PRT3
REV1,REVILÃO,REV1,PRT2
REV2,REVILÃO,REV2,PRT2
PFMA1,PROF.MELO ADRIÃO,PFMA1,PRT2
LDDM1,LIDADOR/M.MONIZ,LDDM1,PRT2
APT1,ANTÓNIO PATRÍCIO,APT1,PRT1
APT3,ANTÓNIO PATRÍCIO,APT3,PRT1
QTM1,QUINTA DE MOREIRA,QTM1,MAI1
QTM2,QUINTA DE MOREIRA,QTM2,MAI1
PPR1,PARQUE DA PRELADA,PPR1,PRT2
PPR2,PARQUE DA PRELADA,PPR2,PRT2
HPRL3,HOSPITAL DA PRELADA,HPRL3,PRT1
HPRL4,HOSPITAL DA PRELADA,HPRL4,PRT1
MLAM1,MARIA LAMAS,MLAM1,PRT1
MLAM2,MARIA LAMAS,MLAM2,PRT1
CPR1,CASA DA PRELADA,CPR1,PRT2
CPR2,CASA DA PRELADA,CPR2,PRT2
PREL2,PRELADA,PREL2,PRT2
HSA5,HOSP. ST. ANTÓNIO,HSA5,PRT1
HMLM3,HOMEM DO LEME,HMLM3,PRT2
FCAS2,FERREIRA DE CASTRO,FCAS2,VNG1
RFON1,RIO DA FONTE,RFON1,VNG1
AKI1,AKI,AKI1,VNG1
AKI2,AKI,AKI2,VNG1
ESR2,ESC.SOARES DOS REIS,ESR2,PRT1
PMS1,PRAIA MADALENA SUL,PMS1,VNG4
PMS2,PRAIA MADALENA SUL,PMS2,VNG4
QSEC2,QUINTA SECA,QSEC2,MTS1
INSA1,IGREJA N.SRA DA AJUDA,INSA1,PRT2
INSA2,IGREJA N.SRA DA AJUDA,INSA2,PRT2
ABVT1,AV.DA BOAVISTA,ABVT1,PRT2
ABVT2,AV.DA BOAVISTA,ABVT2,PRT2
ALXH3,ALEX. HERCULANO,ALXH3,PRT1
LEV1,LEVADA,LEV1,MAI4
LEV2,LEVADA,LEV2,MAI4
IGRT3,IGREJA RIO TINTO,IGRT3,MAI4
CHV3,CHÃO VERDE,CHV3,GDM1
CHV4,CHÃO VERDE,CHV4,GDM1
SAM1,SÁ DE MIRANDA,SAM1,GDM1
SAM2,SÁ DE MIRANDA,SAM2,GDM1
QBNJ2,QUINTA DE BONJÓIA,QBNJ2,PRT3
TBNJ2,TRAVESSA DE BONJÓIA,TBNJ2,PRT3
PINC2,PINHEIRO DE CAMPANHÃ,PINC2,PRT1
ESAS1,ESC.SEC.ABEL SALAZAR,ESAS1,MAI1
ESAS2,ESC.SEC.ABEL SALAZAR,ESAS2,MAI1
.,.,.,MAI2
RBR2,RIBEIRA,RBR2,PRT1
GRJ,GUERRA JUNQUEIRO,GRJ,PRT1
SETB,SETE BICAS,SETB,PRT2
GGF1,GUILHERME GOMES FERNANDES,GGF1,PRT1
ALFC1,ALFREDO CUNHA,ALFC1,MTS1
ALFC2,ALFREDO CUNHA,ALFC2,MTS1
BEL1,BELA,BEL1,MAI4
BEL2,BELA,BEL2,MAI4
TPT3,TV. DA PONTE,TPT3,PRT3
PQN3,PARQUE NASCENTE,PQN3,PRT3
BNV2,BOA NOVA,BNV2,VNG4
TRH3,ISCET,TRH3,PRT1
MCBL2,MERCADO DO BOLHÃO,MCBL2,PRT1
PDCM2,PEDROUÇOS (CEMITÉRIO),PDCM2,MAI4
MON4,MONCHIQUE,MON4,PRT1
ENCO3,ENCOSTA DA ARRÁBIDA,ENCO3,PRT2
ENCO4,ENCOSTA DA ARRÁBIDA,ENCO4,PRT2
MON1,MONCHIQUE,MON1,PRT1
ENCO1,ENCOSTA DA ARRÁBIDA,ENCO1,PRT2
MON2,MONCHIQUE,MON2,PRT1
ENCO2,ENCOSTA DA ARRÁBIDA,ENCO2,PRT2
OURO1,OURO,OURO1,PRT2
OURO2,OURO,OURO2,PRT2
SRV3,SERRALVES,SRV3,PRT2
SRV4,SERRALVES,SRV4,PRT2
MON3,MONCHIQUE,MON3,PRT1
CAIS1,CAIS DAS PEDRAS,CAIS1,PRT1
CAIS2,CAIS DAS PEDRAS,CAIS2,PRT1
PAL7,PALÁCIO,PAL7,PRT1
IGRM1,IGREJA DE MASSARELOS,IGRM1,PRT1
PORI4,PRAIA DO OURIGO,PORI4,PRT2
SDB5,SÁ DA BANDEIRA,SDB5,PRT1
ADM1,ALTINO DOMINGUES MOREIRA,ADM1,VCD8
DPV4,D.PEDRO V,DPV4,PRT1
JMP1,JOSÉ MARIA PEDROTO,JMP1,VCD8
OURO4,OURO,OURO4,PRT2
ESS1,ESCOLA SUPERIOR SAÚDE,ESS1,PRT3
IGRM2,IGREJA DE MASSARELOS,IGRM2,PRT1
RPR,R.PRAIA,RPR,VNG4
SAN3,STO. ANTÓNIO,SAN3,VNG4
CERR1,CERRO,CERR1,VNG4
FMPT,FERNÃO MENDES PINTO,FMPT,VNG1
CCC2,CLUBE CAÇADORES,CCC2,VNG1
CCC1,CLUBE CAÇADORES,CCC1,VNG1
BRIB2,BERNARDIM RIBEIRO,BRIB2,VNG1
BRC1,BR. CEDRO,BRC1,VNG1
EMZ2,EGAS MONIZ,EMZ2,VNG2
CRVL,CRAVEL,CRVL,VNG1
RTP1,RTP,RTP1,VNG1
RTP2,RTP,RTP2,VNG1
SRRS1,SOARES DOS REIS,SRRS1,VNG1
SRD1,SARDOAL,SRD1,VNG1
SO1,S.TO OVÍDIO,SO1,VNG1
ARR,ANTÓNIO R.ROCHA,ARR,VNG1
LGET1,L. ESTEVÃO TORRES,LGET1,VNG1
LGAV3,LGO. DOS AVIADORES,LGAV3,VNG1
CMG1,CÂMARA DE GAIA,CMG1,VNG1
CSSR2,C. SAÚDE S. REIS,CSSR2,VNG1
SALM2,SALGUEIRO MAIA,SALM2,VNG2
SRD2,SARDOAL,SRD2,VNG1
SO2,STO. OVÍDIO,SO2,VNG1
SRRS2,SOARES DOS REIS,SRRS2,VNG1
EBSR2,ESC. EB 2/3 S REIS,EBSR2,VNG1
BRC2,BR. CEDRO,BRC2,VNG1
GENT3,GENERAL TORRES,GENT3,VNG1
CSAD4,CENTRO SAÚDE,CSAD4,MAI4
RUL3,RUELA,RUL3,PRT2
CMPD2,COMPLEXO MUNICIPAL PEDROUÇOS,CMPD2,MAI4
1DCM1,DR. COSTA MATOS,1DCM1,VNG1
AHRQ2,AFONSO HENRIQUES,AHRQ2,VLG2
FNT1,FONTE,FNT1,VLG2
FNT2,FONTE,FNT2,VLG2
FTSR1,FONTE DA SENHORA,FTSR1,VLG1
FTSR2,FONTE DA SENHORA,FTSR2,VLG1
CFER1,CONDE FERREIRA,CFER1,VLG1
VALC1,VALONGO (CENTRO),VALC1,VLG1
RCMB2,RIBEIRO CAMBADO,RCMB2,VLG1
RTNM,ROT. 1º DE MAIO,RTNM,VLG1
PAV1,PAV. GIMNODESPORT.,PAV1,VLG1
PAV2,PAV. GIMNODESPORT.,PAV2,VLG1
PRS2,PRESA,PRS2,VLG1
PSEC2,PONTE SECA,PSEC2,VLG3
PAME2,PADRE AMÉRICO,PAME2,VLG3
PAME1,PADRE AMÉRICO,PAME1,VLG3
CHA2,CHÃ,CHA2,VLG3
CHA1,CHÃ,CHA1,VLG3
RTEL1,RIBEIRO TELES,RTEL1,MAI4
RTEL2,RIBEIRO TELES,RTEL2,MAI4
5OTR1,5 DE OUTUBRO,5OTR1,MAI4
5OTR2,5 DE OUTUBRO,5OTR2,MAI4
FNTE2,FONTE,FNTE2,MAI4
CBD2,CABEDA,CBD2,VLG2
SPAZ2,S.RA DA PAZ,SPAZ2,MAI4
SPAZ1,S.RA DA PAZ,SPAZ1,MAI4
RGNG2,REGUENGO,RGNG2,MAI4
RGNG1,REGUENGO,RGNG1,MAI4
ERMD2,ERMIDA,ERMD2,MAI4
MCST2,MONTES DA COSTA,MCST2,MAI4
MCAM2,MONTE CAMPANHÃ,MCAM2,PRT3
SL2,SANTOS LEITE,SL2,MAI1
PAS2,P. ABÍLIO SAMPAIO,PAS2,MAI3
RSUL2,RECAREI (SUL),RSUL2,MAI1
VDV2,VISCONDE DEVESAS,VDV2,VNG1
CPL1,CAMPO LINDO,CPL1,PRT1
MLAR1,MANUEL LARANJEIRA,MLAR1,PRT3
NDA2,NOEDA,NDA2,PRT1
JRC3,JOÃO R.CABRILHO,JRC3,PRT2
RSR4,R.SENHOR,RSR4,PRT2
SMAI2,SALGUEIRO MAIA,SMAI2,PRT1
STCZ2,S.TA CRUZ,STCZ2,GDM1
RGT1,R. GATÕES,RGT1,MAI1
HPRL1,HOSP. PRELADA,HPRL1,PRT1
QTL1,QUARTEL MILITAR,QTL1,PRT2
BLRB4,BOLHÃO,BLRB4,PRT1
BSEE2,BR.STO.EUGÉNIO (ESCOLA),BSEE2,PRT2
RGR1,REGUEIRA,RGR1,VNG1
ALFG5,ALFÂNDEGA,ALFG5,PRT1
EQ4,ENTRE QUINTAS,EQ4,PRT1
EQ3,ENTRE QUINTAS,EQ3,PRT1
MTD,MONTEDOURO,MTD,MTS2
CRZ,CRUZEIRO,CRZ,MTS2
ACNT1,ALBERTO O CANTADOR,ACNT1,VNG4
ACNT2,ALBERTO O CANTADOR,ACNT2,VNG4
TVAS1,TV.AUGUSTO SIMÕES,TVAS1,MAI1
CCB,CAMILO C. BRANCO,CCB,MAI1
PRNT,PAULO RANITO,PRNT,MAI1
IGRT1,IGREJA RIO TINTO 1,IGRT1,MAI4
FTS1,FONTES,FTS1,VNG5
AREI,AREIAS,AREI,PRT3
CRR2,CARREIRA,CRR2,GDM1
RTE3,RIO TINTO (ESTAÇÃO),RTE3,MAI4
RTE4,RIO TINTO (ESTAÇÃO),RTE4,MAI4
SCT1,S. CAETANO,SCT1,GDM1
SCT3,S. CAETANO,SCT3,GDM1
TRI2,TRIANA,TRI2,MAI4
OTH1,OUTEIRINHO,OTH1,GDM1
SSB2,S. SEBASTIÃO,SSB2,GDM1
VL1,VILAR,VL1,GDM1
MTCR2,MONTE CRASTO,MTCR2,GDM1
PIT1,PADRE IVO TONELLI,PIT1,MAI4
MRDR1,MIRADOURO,MRDR1,GDM1
PTLH,PORTELINHA,PTLH,GDM1
MRDR2,MIRADOURO,MRDR2,GDM1
SST1,SISTELO,SST1,MAI4
SST2,SISTELO,SST2,MAI4
STBX1,SOUTELO BAIXO,STBX1,GDM1
BVG1,B. V. GONDOMAR,BVG1,GDM1
PTHS1,PONTELHAS,PTHS1,GDM1
PTHS2,PONTELHAS,PTHS2,GDM1
TAR5,TARALHÃO,TAR5,GDM1
ICPU2,IGREJA CAPUCHINHOS,ICPU2,GDM1
ICPU1,IGREJA CAPUCHINHOS,ICPU1,GDM1
25A2,25 DE ABRIL,25A2,GDM1
TAR6,TARALHÃO,TAR6,GDM1
MTCR1,MONTE CRASTO,MTCR1,GDM1
GODS,GONDOMAR (SOUTO),GODS,GDM1
CMR1,CAPITÃO MOURA,CMR1,GDM1
CMR2,CAPITÃO MOURA,CMR2,GDM1
VINH1,VINHAL,VINH1,GDM1
STCB2,STA.CRUZ BISPO,STCB2,MTS2
PT3,PASTELEIRA,PT3,PRT2
PG2,PAULO DA GAMA,PG2,PRT2
FLU4,FLUVIAL,FLU4,PRT2
CBN2,COMBONIANOS,CBN2,MAI1
AGR1,AGRA,AGR1,MAI4
FTV2,FONTE VILA,FTV2,MTS2
FMAI,FRANCISCO MAIA,FMAI,MTS2
ALDN1,ALDEIA NOVA,ALDN1,MTS2
ABX2,ALDEIA DE BAIXO,ABX2,MTS2
25A1,25 DE ABRIL,25A1,GDM1
GLV1,GIL VICENTE,GLV1,MAI4
CDR1,CEDRO,CDR1,VCD8
FRA1,FEIRA,FRA1,VCD8
PMAI2,1º DE MAIO,PMAI2,MAI4
CZG2,CRUZ. GUARDEIRAS,CZG2,VCD8
CHC1,CHANCIDRO,CHC1,MAI2
SGMC2,S.GEMIL (CAMINHO FERRO),SGMC2,MAI4
PCUA2,PÍCUA,PCUA2,MAI4
AST2,ÁGUAS SANTAS,AST2,MAI4
PND3,PENEDOS,PND3,MAI1
MFP2,M. FERREIRA PINTO,MFP2,MAI1
AZN2,AZENHA NOVA,AZN2,MAI1
BH1,BELO HORIZONTE,BH1,GDM2
ENV,ESTRADA NOVA,ENV,MAI4
SSB1,S. SEBASTIÃO,SSB1,GDM1
ARDG1,ARDEGÃES,ARDG1,MAI4
RMOS1,R. DO MOSTEIRO,RMOS1,MAI4
RGLO1,ROD. GONÇALVES LAGE,RGLO1,MAI4
MAIA3,MAIA (CÂMARA),MAIA3,MAI1
BRR1,BARREIROS,BRR1,GDM1
GOA2,GOA,GOA2,MTS1
ALVC,ÁLVARO CASTELÕES,ALVC,MTS1
MATM1,MATOSINHOS MERCADO,MATM1,MTS1
MATM2,MATOSINHOS (MERCADO),MATM2,MTS1
SP2,S. PEDRO,SP2,MTS1
CRMT1,CÂNDIDO REIS (METRO),CRMT1,MAI1
CUS1,CUSTÓIAS,CUS1,MAI1
PLG4,PADRÃO LÉGUA,PLG4,MAI1
RGT2,R. GATÕES,RGT2,MAI1
JRC1,JOÃO R. CABRILHO,JRC1,PRT2
SRV1,SERRALVES,SRV1,PRT2
SRV2,SERRALVES,SRV2,PRT2
TRR4,TORRES,TRR4,PRT2
UC1,UNIV. CATÓLICA,UC1,PRT2
UC2,UNIV. CATÓLICA,UC2,PRT2
PT2,PASTELEIRA,PT2,PRT2
MAL3,MALACA,MAL3,PRT2
MLH3,MOLHE,MLH3,PRT2
CRTO4,CRASTO,CRTO4,PRT2
CRTO3,CRASTO,CRTO3,PRT2
CRTO2,CRASTO,CRTO2,PRT2
MLH1,MOLHE,MLH1,PRT2
JN4,JORNAL DE NOTÍCIAS,JN4,PRT1
RBRI1,RIBEIRA (INFANTE),RBRI1,PRT1
RBR1,RIBEIRA,RBR1,PRT1
AAL4,AV.ALIADOS,AAL4,PRT1
AAL5,AV.ALIADOS,AAL5,PRT1
PRR1,PR. DA REPÚBLICA,PRR1,PRT1
TRD1,TRINDADE,TRD1,PRT1
PRDJ2,PR.D.JOÃO I,PRDJ2,PRT1
PDR,LARGO DO PADRÃO,PDR,PRT1
GAZ1,GOMES AZURARA,GAZ1,VNG1
BRIB1,BERNARDIM RIBEIRO,BRIB1,VNG1
PREL5,PRELADA,PREL5,PRT1
FTM5,FONTE DA MOURA,FTM5,PRT2
RAEP1,ROT. A.E.P.,RAEP1,PRT2
BVE1,ERMESINDE - B. V.,BVE1,MAI4
HSJ4,HOSP. S. JOÃO (METRO),HSJ4,PRT3
LPC,LARGO PINTO CORREIA,LPC,PRT2
PSOC1,PERPÉTUO SOCORRO,PSOC1,PRT1
SAMP2,SAMPAIO,SAMP2,MAI4
SEMR,SEMINÁRIO,SEMR,VNG4
BGJ1,BRAGA JÚNIOR,BGJ1,VNG5
MAKR3,MAKRO,MAKR3,VNG1
DISP2,DISPENSÁRIO,DISP2,VNG1
ESTV1,ESTIVADA,ESTV1,GDM1
ALNV2,ALDEIA NOVA,ALNV2,VNG4
TAN,TV. ALDEIA NOVA,TAN,VNG4
TVBO2,TV.BRÁS OLEIRO,TVBO2,MAI4
DPV3,D.PEDRO V,DPV3,PRT1
CALE,R.CAMPO ALEGRE,CALE,PRT1
1SBNT,S.BENTO,1SBNT,PRT1
SA,SILVA AROSO,SA,MTS2
TRD5,TRINDADE,TRD5,PRT1
MDLP,MADALENA,MDLP,VNG4
MAIZ,MAIA (ZOO),MAIZ,MAI1
HRC1,HENRIQUE CERNACHE,HRC1,VNG1
HRC2,HENRIQUE CERNACHE,HRC2,VNG1
STLZ5,STA. LUZIA,STLZ5,PRT2
ZIND3,ZONA INDUSTRIAL,ZIND3,VCD8
ZIND4,ZONA INDUSTRIAL,ZIND4,VCD8
AML4,AMIAL,AML4,MAI1
ISEP3,ISEP/AGRA,ISEP3,PRT3
ISEP4,ISEP/AGRA,ISEP4,PRT3
ACN1,ANTÓNIO CÂNDIDO,ACN1,PRT1
CSJ4,CAMPUS S. JOÃO,CSJ4,PRT3
ACO2,ANTÓNIO COELHO,ACO2,PRT3
VFM2,VALE FORMOSO,VFM2,PRT1
MLAR2,MANUEL LARANJEIRA,MLAR2,PRT3
CPRN4,CEMITÉRIO PARANHOS,CPRN4,PRT3
RBD2,REBORDÃOS,RBD2,PRT3
SVP1,SILVA PORTO,SVP1,PRT1
SVP2,SILVA PORTO,SVP2,PRT1
SVT1,SILVA TAPADA,SVT1,PRT1
SVT3,SILVA TAPADA,SVT3,PRT1
VDAM,VITORINO DAMASIO,VDAM,PRT1
RGSM1,RODRIGUES SEMIDE,RGSM1,PRT3
VFM7,VALE FORMOSO,VFM7,PRT1
HSM4,HOSP. S.TA MARIA,HSM4,PRT1
ST1,S. TOMÉ,ST1,PRT3
RCA,RICARDO ALVES,RCA,MAI1
VFM6,VALE FORMOSO,VFM6,PRT1
VNC2,VIA NORTE (CIRC.),VNC2,PRT2
DC1,DIOGO CÃO,DC1,PRT1
ACO1,ANTÓNIO COELHO,ACO1,PRT3
RBD1,REBORDÃOS,RBD1,PRT3
MPL7,MARQUÊS,MPL7,PRT1
ESED1,ESC. SUP. EDUCAÇÃO,ESED1,PRT3
CPL2,CAMPO LINDO,CPL2,PRT1
BRRG1,BR.REGADO,BRRG1,PRT2
BVLH1,BICA VELHA,BVLH1,PRT1
MIS4,MIOSÓTIS,MIS4,PRT2
BRA5,BR. DO AMIAL,BRA5,PRT2
JPAZ2,JULGADO DE PAZ,JPAZ2,PRT2
RM4,RAMALDE DO MEIO,RM4,PRT2
CMG3,CÂMARA DE GAIA,CMG3,VNG1
FRB,FRANCOS (BOMBEIROS),FRB,PRT2
CSSO1,C.SOCIAL SOUTELO,CSSO1,GDM1
URBS1,URB.SOUTELO,URBS1,GDM1
CABN1,CABANAS,CABN1,GDM1
CABN2,CABANAS,CABN2,GDM1
URBS2,URB.SOUTELO,URBS2,GDM1
CSSO2,C.SOCIAL SOUTELO,CSSO2,GDM1
JPAZ1,JULGADO DE PAZ,JPAZ1,PRT2
CB3,CARVALHA DE BAIXO,CB3,GDM1
CB4,CARVALHA DE BAIXO,CB4,GDM1
CMP5,CAMPANHÃ,CMP5,PRT1
PRCD2,PARQUE CIDADE,PRCD2,PRT2
PRCD1,PARQUE CIDADE,PRCD1,PRT2
BARO1,BAIRRO ANT. AROSO,BARO1,PRT2
PDVD4,PEDRA VERDE,PDVD4,PRT2
IGAL1,IGREJA DE ALDOAR,IGAL1,PRT2
PDVD3,PEDRA VERDE,PDVD3,PRT2
LDD2,LIDADOR,LDD2,PRT2
TVLR2,TEATRO VILARINHA,TVLR2,PRT2
LGO5,LICEU GARCIA ORTA,LGO5,PRT2
CRRP2,CORREIA PINTO,CRRP2,PRT2
FTM2,FONTE DA MOURA,FTM2,PRT2
BFTM2,BR. FONTE DA MOURA,BFTM2,PRT2
FTM4,FONTE DA MOURA,FTM4,PRT2
BRV2,BAIRRO VILARINHA,BRV2,PRT2
JFVP2,JUNTA FREG. VILAR DO PARAÍSO,JFVP2,VNG1
VPRS1,VILAR DO PARAÍSO,VPRS1,VNG1
VPRS2,VILAR DO PARAÍSO,VPRS2,VNG1
SRVM5,SERRALVES (MUSEU),SRVM5,PRT2
VENZ1,VENEZUELA,VENZ1,PRT1
VENZ2,VENEZUELA,VENZ2,PRT1
BS10,BOAVISTA (BOM SUCESSO),BS10,PRT1
CTOM1,CUSTIÓ (METRO),CTOM1,MAI1
1BS3,BOAVISTA - B.SUCESSO,1BS3,PRT1
FNZ4,FÂNZERES (METRO),FNZ4,GDM1
AALM2,ANTÃO DE ALMADA,AALM2,MAI4
1RI1,RUA DA IGREJA,1RI1,GDM1
1GAZ2,GOMES AZURARA,1GAZ2,VNG1
1CDPD,CONDE D. PEDRO,1CDPD,VNG1
MAMB1,MAIAMBIENTE,MAMB1,MAI4
MAMB2,MAIAMBIENTE,MAMB2,MAI4
OLZ2,OLIVEIRA ZINA,OLZ2,VLG1
CHP2,CHOUPELO,CHP2,VNG1
LME1,LOPES DE MENDONÇA,LME1,PRT2
BRTC4,BRITO CAPELO,BRTC4,MTS1
SP5,S. PEDRO,SP5,MTS1
PDZ3,1º DE DEZEMBRO,PDZ3,MTS1
CVO2,CARVALHEIRO,CVO2,VNG4
MDLI2,MADALENA (IGREJA),MDLI2,VNG4
FLUN3,FLUVIAL (NORTE),FLUN3,PRT2
AANT5,ALAMEDA DAS ANTAS,AANT5,PRT1
ARSM3,AREOSA (MERCADO),ARSM3,MAI4
1DBR1,DIOGO BRANDÃO,1DBR1,PRT1
1MGB1,MIGUEL BOMBARDA,1MGB1,PRT1
1GRA1,R.GRANJA,1GRA1,MAI4
PCC1,PISCINA CAMPANHÃ,PCC1,PRT1
MOR2,MOREIRA,MOR2,PRT1
MOR3,MOREIRA,MOR3,PRT1
MPL2,MARQUÊS,MPL2,PRT1
COMB1,COMBATENTES,COMB1,PRT1
DAM,D.AMÉLIA,DAM,PRT1
MFZ2,MERCADO DA FOZ,MFZ2,PRT2
PRI1,PR. DO IMPÉRIO,PRI1,PRT2
PRI4,PR. DO IMPÉRIO,PRI4,PRT2
DL1,D. LEONOR,DL1,PRT2
CNT1,CANTAREIRA,CNT1,PRT2
MFZ1,MERCADO DA FOZ,MFZ1,PRT2
IFOZ1,IGREJA DA FOZ,IFOZ1,PRT2
SRLZ1,SENHORA DA LUZ,SRLZ1,PRT2
DL2,D. LEONOR,DL2,PRT2
CNT2,CANTAREIRA,CNT2,PRT2
PING1,PRAIA DOS INGLESES,PING1,PRT2
PLUZ1,PRAIA DA LUZ,PLUZ1,PRT2
PRDR2,PRADO REPOUSO,PRDR2,PRT1
SCR4,S. CRISPIM,SCR4,PRT1
MPL4,MARQUÊS,MPL4,PRT1
DCAS1,DOZE CASAS,DCAS1,PRT1
DC2,DIOGO CÃO,DC2,PRT1
PBSS2,PINTO BESSA,PBSS2,PRT1
HER2,HEROISMO,HER2,PRT1
SLZ3,S. LÁZARO,SLZ3,PRT1
MATI2,MATOSINHOS (IGREJA),MATI2,MTS1
STLZ4,CRESTINS (STA. LUZIA),STLZ4,MAI1
SEND1,SENDAL,SEND1,MAI1
SEND2,SENDAL,SEND2,MAI1
CRTM1,CRESTINS (METRO),CRTM1,VCD8
CRTM2,CRESTINS (METRO),CRTM2,VCD8
ESTR1,RUA DA ESTRADA,ESTR1,VCD8
ESTR2,RUA DA ESTRADA,ESTR2,VCD8
JCT1,OS JACINTOS,JCT1,MAI1
JCT2,OS JACINTOS,JCT2,MAI1
JZOO1,JARDIM ZOOLÓGICO,JZOO1,MAI1
JZOO2,JARDIM ZOOLÓGICO,JZOO2,MAI1
FEL2,FELICIANA,FEL2,MAI1
ART5,ARROTEIA,ART5,MAI4
ART6,ARROTEIA,ART6,MAI4
SCAB2,SACADURA CABRAL,SCAB2,MAI4
FLO3,FLORES,FLO3,MAI1
FLO4,FLORES,FLO4,MAI1
ENXN3,ENXINHÃES,ENXN3,MAI1
ENXN4,ENXINHÃES,ENXN4,MAI1
SCAB1,SACADURA CABRAL,SCAB1,MAI4
SM3,SÁ E MELO,SM3,MAI1
SM4,SÁ E MELO,SM4,MAI1
HB1,HENRIQUE BARROS,HB1,MAI1
HB2,HENRIQUE BARROS,HB2,MAI1
5OTB3,5 DE OUTUBRO,5OTB3,MAI1
LVR4,ROT.LAVRADOR,LVR4,MAI1
OLB1,OLIVEIRA LOBO,OLB1,GDM1
OLB2,OLIVEIRA LOBO,OLB2,GDM1
CMS2,CASA DA MÚSICA (METRO),CMS2,PRT1
CMS4,CASA DA MÚSICA (METRO),CMS4,PRT1
CMS5,CASA DA MÚSICA (METRO),CMS5,PRT1
LGAV2,LGO. DOS AVIADORES,LGAV2,VNG1
1AL3,AV.ALIADOS,1AL3,PRT1
ESED2,ESC. SUP. EDUCAÇÃO,ESED2,PRT3
MMAI3,GONÇALO MENDES MAIA,MMAI3,MAI2
JFPD2,J. FREGUESIA PEDROUÇOS,JFPD2,MAI4
RPAC2,PAÇO,RPAC2,MAI4
TNG2,TV.NOVA DA GIESTA,TNG2,MAI4
SGMC1,S. GEMIL (CAMINHO FERRO),SGMC1,MAI4
TNG1,TV. NOVA DA GIESTA,TNG1,MAI4
SRG1,SRA. DA GUADALUPE,SRG1,MAI4
ASP4,ASPRELA,ASP4,PRT3
AFEI2,AREOSA (FEIRA),AFEI2,MAI4
ENX2,ENXURREIRAS,ENX2,PRT3
FEL1,FELICIANA,FEL1,MAI1
FMGO1,FORMIGUEIRO,FMGO1,MAI4
BOIM2,BOI MORTO,BOIM2,MAI4
CRPO1,CRESPO,CRPO1,MAI4
BOIM1,BOI MORTO,BOIM1,MAI4
ARSM2,AREOSA (MERCADO),ARSM2,MAI4
TEIB1,TEIBAS,TEIB1,MAI4
ARS5,AREOSA,ARS5,PRT3
CRPO2,CRESPO,CRPO2,MAI4
AFEI1,AREOSA (FEIRA),AFEI1,MAI4
FRN2,FORNO,FRN2,MAI4
TARR2,TV. ARROTEIA,TARR2,MAI1
ARS7,AREOSA,ARS7,MAI4
CUTM1,CUTAMAS,CUTM1,MAI4
PIV2,PEDRO IVO,PIV2,MAI4
ENX3,ENXURREIRAS,ENX3,MAI4
GIT2,GIESTA,GIT2,MAI4
JFPD1,J. FREGUESIA PEDROUÇOS,JFPD1,MAI4
LCMS1,LUÍS DE CAMÕES,LCMS1,MAI4
MMAI1,G. MENDES DA MAIA,MMAI1,MAI4
PIV1,PEDRO IVO,PIV1,MAI4
RPAC1,PAÇO,RPAC1,MAI4
GIT1,GIESTA,GIT1,MAI4
BRRO2,BARREIRO,BRRO2,VCD8
PRU2,PEDRAS RUBRAS,PRU2,VCD8
R7N1,R.7(NASCENTE),R7N1,VCD8
GUD2,GUARDEIRAS,GUD2,VCD8
R7P1,R.7(POENTE),R7P1,VCD8
R52,R.5,R52,VCD8
PMVA2,PRIMAVERA,PMVA2,MAI2
PDM2,PADRÃO MOREIRA,PDM2,MAI2
PDM4,PADRÃO DE MOREIRA,PDM4,MAI2
SOLP2,SOL POENTE,SOLP2,MTS2
SCND1,STO.CONDESTÁVEL,SCND1,MAI1
MCAU4,MACAU,MCAU4,MAI1
RAL1,REAL,RAL1,MAI1
RAL2,REAL,RAL2,MAI1
PCB1,PONTE CABRAS,PCB1,MAI1
PCB2,PONTE CABRAS,PCB2,MAI1
CVC1,CAVACO,CVC1,MAI1
CVC2,CAVACO,CVC2,MAI1
CMGS1,CASAL DOS MOGOS,CMGS1,MAI1
CMGS2,CASAL DOS MOGOS,CMGS2,MAI1
LMG1,LARGO DOS MOGOS,LMG1,MAI1
AGR3,ROT.AGRA,AGR3,MAI4
AGR4,ROT.AGRA,AGR4,MAI4
ANV1,ALDEIA NOVA,ANV1,MAI4
ANV2,ALDEIA NOVA,ANV2,MAI4
ZIND1,ZONA INDUSTRIAL,ZIND1,MAI4
ZIND2,ZONA INDUSTRIAL,ZIND2,MAI4
MPN1,MONTE PENEDO,MPN1,MAI4
MPN2,MONTE PENEDO,MPN2,MAI4
PRMV1,PRIMAVERA,PRMV1,MAI4
PRMV2,PRIMAVERA,PRMV2,MAI4
TARG2,TV.ARDEGÃES,TARG2,MAI4
ARDG3,ARDEGÃES,ARDG3,MAI4
ARDG4,ARDEGÃES,ARDG4,MAI4
SCND2,STO.CONDESTÁVEL,SCND2,MAI1
ETRP2,EDIF. TRANSPARENTE,ETRP2,PRT2
AGN,AGUIAR NOGUEIRA,AGN,VLG1
RM3,RAMALDE DO MEIO,RM3,PRT2
CRM1,CASA DE RAMALDE,CRM1,PRT2
IRM2,IGREJA DE RAMALDE,IRM2,PRT2
IRM1,IGREJA DE RAMALDE,IRM1,PRT2
BBL1,BAIRRO BESSA LEITE,BBL1,PRT1
MN1,MUNDO NOVO,MN1,MTS1
MN2,MUNDO NOVO,MN2,MTS1
MP1,MONTE DOS PIPOS,MP1,MTS1
MP2,MONTE DOS PIPOS,MP2,MTS1
RDAG1,REGUINHO D ÁGUA,RDAG1,MTS1
RDAG2,REGUINHO D ÁGUA,RDAG2,MTS1
FVLH1,FONTE VELHA,FVLH1,PRT1
GA1,GUEDES AMORIM,GA1,VNG1
MATR1,MATERNIDADE,MATR1,PRT1
CMPT1,CAMPO PASTELEIRA,CMPT1,PRT2
CMPT2,CAMPO PASTELEIRA,CMPT2,PRT2
SPC1,S. PEDRO DA COVA,SPC1,GDM2
PSL1,PASSAL,PSL1,GDM2
PSL2,PASSAL,PSL2,GDM2
SPC2,S.PEDRO C. /PASSAL,SPC2,GDM2
SPC3,S.PEDRO C. /PASSAL,SPC3,GDM2
BCM2,BOAVISTA-CASA DA MÚSICA,BCM2,PRT1
CSBV,CASA DE SAÚDE DA BOAVISTA,CSBV,PRT1
CSBV1,CASA DE SAÚDE DA BOAVISTA,CSBV1,PRT1
HSA,HOSP.STO. ANTÓNIO,HSA,PRT1
BVG2,B. V. GONDOMAR,BVG2,GDM1
RTE1,RIO TINTO (ESTAÇÃO),RTE1,MAI4
FRR1,FERRARIA,FRR1,GDM1
DPA2,DR.PORFÍRIO ANDRADE,DPA2,MAI4
RGD2,REGADAS,RGD2,GDM1
RF2,RIO FERREIRA,RF2,GDM2
BV1,BELA VISTA,BV1,GDM2
COVH1,COVILHÃ,COVH1,GDM2
STO1,S.TA OVAIA,STO1,GDM1
TF2,TV. FEIRA,TF2,MAI1
SRSD2,S.RA DA SAÚDE,SRSD2,MAI1
FMGO2,FORMIGUEIRO,FMGO2,MAI4
OUTE1,OUTEIRO,OUTE1,MAI1
TMQ2,TAMANQUEIROS,TMQ2,MAI3
IGMI1,IGREJA (MILHEIROS),IGMI1,MAI4
PMVA1,PRIMAVERA,PMVA1,MAI2
PDM1,PADRÃO MOREIRA,PDM1,MAI2
BRRO1,BARREIRO,BRRO1,VCD8
CHC2,CHÂNCIDRO,CHC2,MAI2
QTAD1,QUINTA ANDORINHAS,QTAD1,MAI1
RL1,RIO LEÇA,RL1,MAI1
PRU1,PEDRAS RUBRAS,PRU1,VCD8
DACM2,DR. A. COSTA MAIA,DACM2,VCD8
PRUE2,PEDRAS RUBRAS (METRO),PRUE2,VCD8
R51,R.5,R51,VCD8
MMAI2,GONÇALO MENDES MAIA,MMAI2,MAI2
ASOT2,ALTO DE SOUTELO,ASOT2,GDM1
STE1,S.TA EULÁLIA,STE1,GDM1
TCRZ1,TV.CRUZES,TCRZ1,GDM1
SCT4,S. CAETANO,SCT4,GDM1
TCRZ2,TV.CRUZES,TCRZ2,GDM1
PARR3,PONTE ARRÁBIDA,PARR3,PRT1
OLV3,OLIVEIRAS,OLV3,MTS2
PINH2,PINHEIRO,PINH2,MAI4
PINT2,PINTA,PINT2,MAI3
QULH1,QUELHAS,QULH1,MAI4
VRM2,VERMOIM,VRM2,MAI3
QNV1,QUINTA NOVA,QNV1,MAI1
CAM1,CARLOS AMARANTE,CAM1,PRT3
COVH4,COVILHÃ,COVH4,GDM2
SCT2,S. CAETANO,SCT2,GDM1
OTH2,OUTEIRINHO,OTH2,GDM1
RCH2,R. CHAQUEDAS,RCH2,VNG4
VRM1,VERMOIM,VRM1,MAI3
QTAD2,QUINTA ANDORINHAS,QTAD2,MAI1
JLD2,JÚLIO DINIS,JLD2,MAI4
PRCD4,PARQUE DA CIDADE,PRCD4,PRT2
MEIL2,MEILÃO,MEIL2,MAI4
LBM,LABORIM,LBM,VNG1
MTCT1,MONTE CASTELO,MTCT1,MTS1
GATS1,GATÕES,GATS1,MTS1
GATS2,GATÕES,GATS2,MTS1
GUIF2,GUIFÕES,GUIF2,MTS1
CUSF2,CUSTÓIAS (FEIRA),CUSF2,MAI1
TFV2,TV.FONTE VELHA,TFV2,MAI1
CUSF1,CUSTÓIAS (FEIRA),CUSF1,MAI1
CSTM1,CUSTÓIAS (METRO),CSTM1,MAI1
CSTM2,CUSTÓIAS (METRO),CSTM2,MAI1
TPM1,TV. PASSOS MANUEL,TPM1,MTS1
TPM2,TV. PASSOS MANUEL,TPM2,MTS1
HMT2,HOSPITAL MATOSINHOS,HMT2,MTS1
MATC1,MATOSINHOS (CMM),MATC1,MTS1
DAFC1,DR. AFONSO CORDEIRO,DAFC1,PRT2
SAR2,SOUSA AROSO,SAR2,MTS1
PQBT2,PQ BASÍLIO TELES,PQBT2,MTS1
PQBT3,PARQUE BASÍLIO TELES,PQBT3,MTS1
SP1,S. PEDRO,SP1,MTS1
LOTA1,LOTA,LOTA1,MTS1
PQBT4,PQ BASÍLIO TELES,PQBT4,MTS1
QTI,QUINTA INGLESES,QTI,PRT2
GODH5,GODINHO,GODH5,MTS1
SAR1,SOUSA AROSO,SAR1,MTS1
AVM1,AV. MENÉRES,AVM1,MTS1
CRV1,CARCAVELOS,CRV1,MTS1
PCID1,PR. CID. SALVADOR,PCID1,PRT2
MTSP2,MATOSINHOS PRAIA,MTSP2,MTS1
MTSP1,MATOSINHOS PRAIA,MTSP1,MTS1
MATC2,MATOSINHOS (CMM),MATC2,MTS1
SER2,SEARA,SER2,MTS1
GODH6,GODINHO,GODH6,MTS1
DAH1,D.AFONSO HENRIQUES,DAH1,PRT2
BRTC1,BRITO CAPELO,BRTC1,MTS1
BRTC2,BRITO CAPELO,BRTC2,MTS1
HMT1,HOSPITAL MATOSINHOS,HMT1,MTS1
GODH4,GODINHO,GODH4,MTS1
LOTA2,LOTA,LOTA2,MTS1
SER1,SEARA,SER1,MTS1
JN3,JORNAL DE NOTÍCIAS,JN3,PRT1
TRD2,TRINDADE,TRD2,PRT1
HSM1,HOSP. S.TA MARIA,HSM1,PRT1
GCRT1,GONÇALO CRISTÓVÃO,GCRT1,PRT1
HSM,HOSP. S.TA MARIA,HSM,PRT1
FG2,FARIA GUIMARÃES,FG2,PRT1
BLRB3,BOLHÃO,BLRB3,PRT1
SCAT1,S.TA CATARINA,SCAT1,PRT1
DCAS2,DOZE CASAS,DCAS2,PRT1
MOR1,MOREIRA,MOR1,PRT1
DT2,DUQUE TERCEIRA,DT2,PRT1
FTNH2,FONTINHA,FTNH2,PRT1
CORD8,CORDOARIA,CORD8,PRT1
CORD2,CORDOARIA,CORD2,PRT1
CORD1,CORDOARIA,CORD1,PRT1
CORD3,CORDOARIA,CORD3,PRT1
CORD5,CORDOARIA,CORD5,PRT1
CORD4,CORDOARIA,CORD4,PRT1
CORD7,CORDOARIA,CORD7,PRT1
SLZ1,S. LÁZARO,SLZ1,PRT1
AF2,ÁGUAS FERREAS,AF2,VLG1
ASRR1,ALTO DA SERRA,ASRR1,GDM1
FS2,FLOR DA SERRA,FS2,VLG1
ASRR2,ALTO DA SERRA,ASRR2,VLG1
GCR,GASPAR CORTE REAL,GCR,VLG1
AF1,ÁGUAS FERREAS,AF1,VLG1
ALXH1,ALEX. HERCULANO,ALXH1,VLG2
TCT1,TV. DA COSTA,TCT1,VLG2
TCT2,TV. DA COSTA,TCT2,VLG2
RGFT1,RODRIGUES FREITAS,RGFT1,MAI4
RIGR2,R. IGREJA,RIGR2,MAI4
JDEU4,JOÃO DE DEUS,JDEU4,MAI4
RGFT2,RODRIGUES FREITAS,RGFT2,MAI4
SAMP1,SAMPAIO,SAMP1,MAI4
SBR2,SAIBREIRAS,SBR2,MAI4
PTCR1,PORTO CARREIRO,PTCR1,MAI4
CRZ2,CRUZEIRO,CRZ2,MAI4
9AG1,9 DE AGOSTO,9AG1,MAI4
CRZ1,CRUZEIRO,CRZ1,MAI4
CGK1,CALOUSTE GULBENKIAN,CGK1,MAI4
CRT,CARTES,CRT,PRT3
HER1,HEROISMO,HER1,PRT1
RBRI2,RIBEIRA (INFANTE),RBRI2,PRT1
FMGC2,FORMIGA CEMITÉRIO,FMGC2,MAI4
QCH1,QUINTA CHÃOS,QCH1,MAI4
PGON1,PRAIA DE GONDARÉM,PGON1,PRT2
ADA2,ARCA D ÁGUA,ADA2,PRT1
JB1,JARDIM BOTÂNICO,JB1,PRT1
CNTT2,CONSTITUIÇÃO,CNTT2,PRT1
BFAL1,BR. FALCÃO,BFAL1,PRT3
C24A4,CAMPO 24 AGOSTO,C24A4,PRT1
LAPA1,LAPA,LAPA1,PRT1
CTP,CLUBE TÉNIS PORTO,CTP,PRT1
CZV2,CRUZ VERMELHA,CZV2,PRT1
BLRB1,BOLHÃO,BLRB1,PRT1
ERMI2,ERMESINDE (IGREJA),ERMI2,MAI4
GNR2,GNR,GNR2,VNG1
RSMT1,R. SR MATOSINHOS,RSMT1,VNG1
TLHO1,TELHEIRO,TLHO1,MAI1
AGM2,AGRAMONTE,AGM2,PRT1
HSPH1,HOSP. P. HISPANO,HSPH1,MTS1
HSPH2,HOSP. P. HISPANO,HSPH2,MTS1
HMBC1,HUMBERTO CRUZ,HMBC1,MTS2
HMBC2,HUMBERTO CRUZ,HMBC2,MTS2
AEP1,ASSOC. EMP. PORTUGAL,AEP1,MTS2
VN2,VIA NORTE,VN2,MAI1
SSD1,SANTOS DIAS,SSD1,MAI1
PLG1,PADRÃO DA LÉGUA,PLG1,MAI1
PLG3,PADRÃO LÉGUA,PLG3,MAI1
SMM5,S. MAMEDE,SMM5,MAI1
SMMM1,S.MAMEDE (MERCADO),SMMM1,MAI1
THB1,TV. HENRIQUE BRAVO,THB1,MAI1
OG2,OLIVEIRA GAIO,OG2,MAI1
LARJ2,LARANJEIRAS,LARJ2,MAI1
OG1,OLIVEIRA GAIO,OG1,MAI1
DRB2,DR.BARROS,DRB2,MAI1
CSXN1,C. SEIXO (NORTE),CSXN1,MAI1
MOD1,MOALDE,MOD1,MAI1
FLOS1,FLORES,FLOS1,MAI1
FLOS2,FLORES,FLOS2,MAI1
FGT1,FOGUETEIROS (SUL),FGT1,MAI1
ASZ2,ABEL SALAZAR,ASZ2,MAI1
CSX2,CENTRAL SEIXO,CSX2,MAI1
CSX1,CENTRAL SEIXO,CSX1,MAI1
CVD1,CAVADAS,CVD1,MAI1
AR1,ALMIRANTE REIS,AR1,MAI1
PCT3,PICOUTOS,PCT3,MAI1
PCT4,PICOUTOS,PCT4,MAI1
SM1,SÁ E MELO,SM1,MAI1
TLHO2,TELHEIRO,TLHO2,MAI1
BRRO3,BARREIRO,BRRO3,VCD8
FCA,FACULDADE ARQUITETURA,FCA,PRT1
PREP2,PARQUE DA REPÚBLICA,PREP2,VNG1
ASOT3,ALTO DE SOUTELO,ASOT3,GDM1
MNH1,MANINHO,MNH1,VNG4
LV1,LAVOURAS,LV1,VNG1
CPNH2,CAMPOLINHO,CPNH2,VNG4
VAL,VALADARES (EST),VAL,VNG4
RDA2,REGO D ÁGUA,RDA2,VNG4
TMTS2,TV. MATAS,TMTS2,VNG1
TELH2,TELHEIRA,TELH2,VNG1
TELH1,TELHEIRA,TELH1,VNG1
CHAS2,CHÃS,CHAS2,VNG1
PCTO1,PRACETA OLIVEIRAS,PCTO1,VNG4
DVE3,DEVESAS (ESTAÇÃO),DVE3,VNG1
LV2,LAVOURAS,LV2,VNG1
RTV1,R. TENENTE VALADIM,RTV1,VNG5
AGOM1,AUGUSTO GOMES,AGOM1,VNG1
GDR2,GANDARA,GDR2,VNG4
JP1,JOSÉ PORTUGAL,JP1,VNG4
AGU2,AGUIM,AGU2,VNG4
ALNV1,ALDEIA NOVA,ALNV1,VNG4
NZ2,NAZARÃES,NZ2,VNG4
NVL1,NOVA LISBOA,NVL1,VNG4
28J1,28 DE JANEIRO,28J1,VNG1
AEC2,ALAM.EMPRESA,AEC2,VNG1
AGRO1,AGRO,AGRO1,VNG1
NOC,NÓ CANDAL,NOC,VNG1
COB6,COIMBRÕES 1,COB6,VNG1
COB4,COIMBRÕES,COB4,VNG1
VTC2,VITERBO CAMPOS,VTC2,VNG1
TFL2,TV. FONTE LODOSA,TFL2,VNG1
TMTS1,TV. MATAS,TMTS1,VNG1
PRMR2,PR. M. SILVA REIS,PRMR2,VNG1
PRMR1,PR. M. SILVA REIS,PRMR1,VNG1
RFL2,R. FONTE LODOSA,RFL2,VNG5
RFL1,R. FONTE LODOSA,RFL1,VNG5
PTD1,PITADA,PTD1,VNG4
CVO,CARVALHEIRO,CVO,VNG4
RMT3,R. DAS MATAS,RMT3,VNG1
MLH2,MOLHE,MLH2,PRT2
NEVG,NEVOGILDE,NEVG,PRT2
LNEV2,LGO.NEVOGILDE,LNEV2,PRT2
LNEV1,LGO.NEVOGILDE,LNEV1,PRT2
CREI2,CRISTO REI,CREI2,PRT2
CREI1,CRISTO REI,CREI1,PRT2
DAFC2,DR. AFONSO CORDEIRO,DAFC2,PRT2
FCH2,FUNCHAL,FCH2,PRT2
JNN2,JACINTO NUNES,JNN2,PRT2
NEVG1,NEVOGILDE,NEVG1,PRT2
RCRT2,R.CRASTO,RCRT2,PRT2
RCRT1,R.CRASTO,RCRT1,PRT2
CPL,CAMPO LINDO,CPL,PRT1
SVT4,SILVA TAPADA,SVT4,PRT1
VFM3,VALE FORMOSO,VFM3,PRT1
VFM1,VALE FORMOSO,VFM1,PRT1
HSJ10,HOSP. S. JOÃO (CIRCUNVALAÇÃO),HSJ10,PRT3
SP,SERPA PINTO,SP,PRT1
HSJ3,HOSP. S. JOÃO (METRO),HSJ3,PRT3
ALVT2,ALMEIDA VALENTE,ALVT2,PRT3
AML1,AMIAL,AML1,PRT3
ASZ1,ABEL SALAZAR,ASZ1,MAI1
ASZ3,ABEL SALAZAR,ASZ3,MAI1
ASZ4,ABEL SALAZAR,ASZ4,MAI1
AZN1,AZENHA NOVA,AZN1,MAI1
AP2,ANTÓNIO PEDRO,AP2,MAI1
BAR1,BARÃO,BAR1,MTS2
ALDN2,ALDEIA NOVA,ALDN2,MTS2
JQA1,JOAQUIM ANDRADE,JQA1,MTS2
GUAR2,GUARDA,GUAR2,MTS2
FRRS2,FARRAPAS,FRRS2,MTS2
BAR2,BARÃO,BAR2,MTS2
PFTT2,PERAFITA,PFTT2,MTS2
FRRS1,FARRAPAS,FRRS1,MTS2
QTC1,Q.TA DA CONCEICÃO,QTC1,MTS2
ALMG1,ALMEIRIGA,ALMG1,MTS2
ABMG2,ABADE MONDEGO,ABMG2,MTS2
ABX1,ALDEIA  BAIXO,ABX1,MTS2
CONT2,CONTINENTE,CONT2,MTS1
ARJ1,ARAÚJO,ARJ1,MAI1
AP1,ANTÓNIO PEDRO,AP1,MAI1
CSXS1,C. SEIXO (SUL),CSXS1,MAI1
CSXS2,C. SEIXO (SUL),CSXS2,MAI1
CTIO2,CUSTIÓ,CTIO2,MAI1
PCRQ1,PONTE CARRAQUINHO,PCRQ1,MAI1
PCRQ2,PONTE CARRAQUINHO,PCRQ2,MAI1
RNOR2,RECAREI (NORTE),RNOR2,MAI1
CAL2,CAL,CAL2,MAI1
GSUL1,GONDIVAI (SUL),GSUL1,MAI1
REXP1,ROT. DA EXPONOR,REXP1,MTS2
FAP2,FREI ÁLVARO PINTO,FAP2,MAI1
BVLH2,BICA VELHA,BVLH2,PRT1
CAM3,CARLOS AMARANTE,CAM3,PRT3
CCBR,COSTA CABRAL,CCBR,PRT1
LW1,LUIS WOODHOUSE,LW1,PRT1
LW2,LUIS WOODHOUSE,LW2,PRT1
ACST2,ÁLVARO CASTELÕES,ACST2,PRT1
PREC2,PRECIOSA,PREC2,PRT2
EZC1,EZEQUIEL CAMPOS,EZC1,PRT2
PRO1,PEREIRÓ,PRO1,PRT2
PARR1,PONTE DA ARRÁBIDA,PARR1,PRT1
STC2,S.TA CATARINA,STC2,PRT2
JBR1,JOÃO BARROS,JBR1,PRT2
PNV3,PAULO NOVAIS,PNV3,PRT2
BSS2,BESSA,BSS2,PRT1
ACRD1,ANTÓNIO CARDOSO,ACRD1,PRT1
ACRD2,ANTÓNIO CARDOSO,ACRD2,PRT1
MPAZ4,MAN.P.AZEVEDO 2,MPAZ4,PRT2
EFRD2,ENG. FERREIRA DIAS,EFRD2,PRT2
MPAZ3,MAN.P.AZEVEDO 1,MPAZ3,PRT2
RUL2,RUELA,RUL2,PRT2
VNC1,VIA NORTE (CIRC.),VNC1,PRT2
RAEP3,ROT. A.E.P.,RAEP3,PRT2
HMCH2,HENRIQUE MACHADO,HMCH2,GDM1
JD2,JOÃO DE DEUS,JD2,VNG1
RAL3,REAL,RAL3,MAI2
RAL4,REAL,RAL4,MAI2
MAIA,MAIA,MAIA,MAI1
SM5,SÁ E MELO,SM5,MAI1
VLR5,VILAR,VLR5,MAI1
PDV3,PEDRA VERDE,PDV3,MAI1
MOIN3,MOINHOS,MOIN3,MAI1
MAIN3,MAÍNÇA,MAIN3,MAI1
ART7,ARROTEIA,ART7,MAI1
QRS1,QUEIRÃOS,QRS1,MAI1
RMST3,RUA DE MOSTEIRO,RMST3,MAI1
EZC3,EZEQUIEL CAMPOS,EZC3,MAI1
DBT1,DR DOMINGOS BONTEMPO,DBT1,MAI1
DBT2, DR.DOMINGOS BONTEMPO,DBT2,MAI1
EZC4,EZEQUIEL CAMPOS,EZC4,MAI1
RMST4,RUA DE MOSTEIRO,RMST4,MAI1
QRS2,QUEIRÃOS,QRS2,MAI1
ART8,ARROTEIA,ART8,MAI1
MAIN4,MAÍNÇA,MAIN4,MAI1
MOIN4,MOINHOS,MOIN4,MAI1
PDV4,PEDRA VERDE,PDV4,MAI1
VLR6,VILAR,VLR6,MAI1
CVLO2,COVELO,CVLO2,PRT1
HUMB1,HUMBERTO DELGADO,HUMB1,MAI4
HUMB2,HUMBERTO DELGADO,HUMB2,MAI4
ARSF3,AREOSA (FEIRA),ARSF3,MAI4
ARSF4,AREOSA (FEIRA),ARSF4,MAI4
RGM,RUI GAMEIRO,RGM,MAI1
AVLH3,AVILHÓ,AVLH3,MAI1
TFV3,TV.FONTE VELHA,TFV3,MAI1
CUSF3,CUSTÓIAS (FEIRA),CUSF3,MAI1
GGF,GUIL. G. FERNANDES,GGF,PRT1
CMO,CARMO,CMO,PRT1
MIS3,MIOSÓTIS,MIS3,PRT2
COLS,COLISEU DO PORTO,COLS,PRT1
PRDJ,PR. D. JOÃO I,PRDJ,PRT1
TLHR3,R.TELHEIRA,TLHR3,PRT3
OURO3,OURO,OURO3,PRT2
PAL6,PALÁCIO,PAL6,PRT1
SCAT3,SANTA CATARINA,SCAT3,PRT1
AANT1,ALAMEDA DAS ANTAS,AANT1,PRT1
CSLP1,C. SAÚDE LEÇA PALMEIRA,CSLP1,MTS2
AMR3,AMOROSA,AMR3,MTS2
CSLP2,C. SAÚDE LEÇA PALMEIRA,CSLP2,MTS2
QTR3,QTA DAS ROSAS,QTR3,VNG1
QTR4,QTA DAS ROSAS,QTR4,VNG1
ALRD1,ALVES REDOL,ALRD1,VNG1
ALRD2,ALVES REDOL,ALRD2,VNG1
JFVP1,JUNTA FREG. VILAR DO PARAÍSO,JFVP1,VNG1
1GRA2,R.GRANJA,1GRA2,MAI4
1PPI2,PARQUE PÍCUA,1PPI2,MAI4
CTOM2,CUSTIÓ (METRO),CTOM2,MAI1
BIBG1,BIBLIOTECA DE GAIA,BIBG1,VNG1
CF4,CONDE FERREIRA,CF4,PRT3
CMP6,CAMPANHÃ,CMP6,PRT1
IARS1,IGREJA AREOSA,IARS1,PRT3
IARS2,IGREJA AREOSA,IARS2,PRT3
FOUT1,FONTE DO OUTEIRO,FOUT1,PRT3
1GFE1,GONDOMAR FEIRA,1GFE1,GDM1
1PAUS,PAUS,1PAUS,MTS1
1SDMC,SENDIM (CEMITÉRIO),1SDMC,MTS1
IANT4,IGREJA DAS ANTAS,IANT4,PRT1
AANT2,ALAMEDA DAS ANTAS,AANT2,PRT1
OLZ1,OLIVEIRA ZINA,OLZ1,VLG1
SZEN1,SALGADO ZENHA,SZEN1,MTS1
GENT4,GENERAL TORRES,GENT4,VNG1
CTS3,CASTELOS,CTS3,PRT1
LIDM1,LIDADOR (METRO),LIDM1,VCD8
RRIB1,R.RIBEIRO,RRIB1,VCD8
RRIB2,R.RIBEIRO,RRIB2,VCD8
LIMA1,LIMA,LIMA1,PRT1
LIMA2,LIMA,LIMA2,PRT1
COMB3,COMBATENTES,COMB3,PRT1
COMB4,COMBATENTES,COMB4,PRT1
DC4,DIOGO CÃO,DC4,PRT1
DC5,DIOGO CÃO,DC5,PRT1
FNZ3,FÂNZERES (METRO),FNZ3,GDM1
STLN1,STA. LUZIA (NORTE),STLN1,PRT2
ASP2,ALBERTO SAMPAIO,ASP2,PRT2
ILHA,ILHA,ILHA,VLG1
1BS2,BOAVISTA - B.SUCESSO,1BS2,PRT1
JSP,JOSÉ POÇAS,JSP,VNG4
CPNH1,CAMPOLINHO,CPNH1,VNG4
SAN2,STO.  ANTÓNIO,SAN2,VNG4
PDI2,PEDREIRAS,PDI2,VNG4
SNG2,SOUSA NOGUEIRA,SNG2,VNG4
VDE,VILA D ESTE,VDE,VNG2
AMSE,A.SANTOS (ESCOLAS),AMSE,VNG4
COEM,COELHO MOREIRA,COEM,VNG4
VALE,VALADARES (ESCOLAS),VALE,VNG4
TPEN,TV. PENEDO,TPEN,VNG4
LEIR,LARGO EIRÓS,LEIR,VNG4
VAL1,VALADARES,VAL1,VNG4
LGM2,LGO. MONTINHO,LGM2,VNG1
MNH2,MANINHO,MNH2,VNG4
CCB1,CAMILO C. BRANCO,CCB1,VNG1
CERR2,CERRO,CERR2,VNG4
MVTO2,MOINHO VENTO,MVTO2,VNG4
1R9A1,R. 9 ABRIL,1R9A1,PRT1
VDN7,VENDA NOVA,VDN7,GDM1
BIBG2,BIBLIOTECA DE GAIA,BIBG2,VNG1
FOUT2,FONTE DO OUTEIRO,FOUT2,PRT3
DESS1,DR. EDUARDO SANTOS SILVA,DESS1,PRT3
DESS2,DR. EDUARDO SANTOS SILVA,DESS2,PRT3
NOB1,NÓ BONJÓIA,NOB1,PRT3
PDLF1,PAVILHÃO LUÍS FALCÃO,PDLF1,PRT3
PDLF2,PAV. DESPORTIVO LUÍS FALCÃO,PDLF2,PRT3
PRDR3,PRADO REPOUSO,PRDR3,PRT1
TIC1,TERMINAL INTERMODAL CAMPANHÃ,TIC1,PRT1
TIC2,TERMINAL INTERMODAL CAMPANHÃ,TIC2,PRT1
TIC3,TERMINAL INTERMODAL CAMPANHÃ,TIC3,PRT1
CRUG1,CRUZEIRO (GUIFÕES),CRUG1,MTS1
1SJB2,S. JOÃO DE BRITO,1SJB2,PRT2
1MST1,MACHADO SANTOS,1MST1,VNG1
1TFL1,TV. FONTE LODOSA,1TFL1,VNG1
1ALT2,ALTOS,1ALT2,MAI1
1NAL1,NOVA ALTOS,1NAL1,MAI1
1NAL2,NOVA ALTOS,1NAL2,MAI1
1LDD6,LIDADOR/HOSPITAL,1LDD6,PRT2
1LDD,LIDADOR,1LDD,PRT2
ACDR1,ALAM. CEDRO,ACDR1,VNG1
SO4,STO. OVÍDIO,SO4,VNG1
CSSR1,C. SAÚDE S. REIS,CSSR1,VNG1
LGET2,L. ESTEVÃO TORRES,LGET2,VNG1
LGAV1,LGO. DOS AVIADORES,LGAV1,VNG1
AEPT1,AEROPORTO,AEPT1,VCD8
ALVS1,JOAQUIM ALVES SILVA,ALVS1,MTS2
1ADA1,ARCA D´ÁGUA,1ADA1,PRT1
1PEI1,R.DA PIEDADE,1PEI1,MAI4
VLGE3,VALONGO (ESTAÇÃO),VLGE3,VLG1
1CAP1,CASTRO PORTUGAL,1CAP1,VNG1
1ZC1,ZEFERINO COSTA,1ZC1,VNG1
PDI1,PEDREIRAS,PDI1,VNG4
MNH3,MANINHO,MNH3,VNG4
MDCS1,MADALENA (C. SAUDE),MDCS1,VNG4
1SCB1,STA. CRUZ BISPO,1SCB1,MTS2
CHP1,CHOUPELO,CHP1,VNG1
SRRS3,SOARES DOS REIS,SRRS3,VNG1
MLAM3,MARIA LAMAS,MLAM3,PRT1
SRVM4,SERRALVES (MUSEU),SRVM4,PRT2
VERT1,VERTIDO,VERT1,VLG3
CMPO3,CAMPO,CMPO3,VLG3
CMPO4,CAMPO,CMPO4,VLG3
VERT2,VERTIDO,VERT2,VLG3
MCBL3,MERCADO DO BOLHÃO,MCBL3,PRT1
GUIF3,GUIFÕES,GUIF3,MTS1
SGZ1,AV. SALG. ZENHA,SGZ1,MTS1
SGZ2,AV. SALG. ZENHA,SGZ2,MTS1
1SBNT1,EST.S.BENTO,1SBNT1,PRT1
0AAL4,ALIADOS,0AAL4,PRT1
0TRD6,TRINDADE,0TRD6,PRT1
0AAL2,AV. ALIADOS,0AAL2,PRT1
0HSJ8,HOSP.S.JOÃO (CIRCUNVALAÇÃO),0HSJ8,PRT3
0HSJ9,HOSP.S.JOÃO (CIRCUNVALAÇÃO),0HSJ9,PRT3
0BLRB,BOLHÃO,0BLRB,PRT1
0COR3,CORDOARIA,0COR3,PRT1
0COR1,CORDOARIA,0COR1,PRT1
0COR5,CORDOARIA,0COR5,PRT1
MCBL4,MERCADO DO BOLHÃO,MCBL4,PRT1
IANT3,IGREJA DAS ANTAS,IANT3,PRT1
DAG1,DR.ANTÓNIO GRANJO,DAG1,VNG1
STP1,SANTOS POUSADA,STP1,PRT1
GCRT3,GONÇALO CRISTÓVÃO,GCRT3,PRT1
PRSM3,PARAÍSO (METRO),PRSM3,PRT1
FCUP1,FACULDADE DE CIÊNCIAS,FCUP1,PRT1
FCUP2,FACULDADE DE CIÊNCIAS,FCUP2,PRT1
HSA6,HOSP. STO. ANTÓNIO,HSA6,PRT1
PRF4,PR. DAS FLORES,PRF4,PRT1
PRFL1,PR.FILIPA DE LENCASTRE,PRFL1,PRT1
1AL6,AV.ALIADOS,1AL6,PRT1
1PPI1,PARQUE PÍCUA,1PPI1,MAI4
DSRR1,DANIEL SERRÃO,DSRR1,VNG1
1SJB1,S.JOÃO DE BRITO,1SJB1,PRT2
1EBA2,ESC.BAS.ALFENA,1EBA2,VLG2
1EBA1,ESC.BAS.ALFENA,1EBA1,VLG2
1RFD2,R. FUNDA,1RFD2,VLG2
1DEV1,DEVESAS ESTAÇÃO,1DEV1,VNG1
1MZA1,MOUZINHO ALBUQUERQUE,1MZA1,VNG1
1JFT1,JOSÉ FONTANA,1JFT1,VNG1
LGO2,LICEU GARCIA ORTA,LGO2,PRT2
ESCN2,ESCOLA NORMAL,ESCN2,PRT1
EIR3,EIRINHAS,EIR3,PRT1
BFM4,BONFIM,BFM4,PRT1
MAV2,MONTE AVENTINO,MAV2,PRT1
CAZ,COUTINHO AZEVEDO,CAZ,PRT1
NAVE2,NAVE,NAVE2,PRT1
VRD1,VARANDAS,VRD1,PRT1
MRD,MOREDA,MRD,PRT1
C24A1,CAMPO 24 DE AGOSTO,C24A1,PRT1
GND2,GUINDAIS,GND2,PRT1
FRNS1,FORNOS,FRNS1,PRT1
MAV1,MONTE AVENTINO,MAV1,PRT1
PTDM1,PTE.D.MARIA PIA,PTDM1,PRT1
ESCL,ESCOLAS,ESCL,PRT3
FBC2,FÁBRICA DO COBRE,FBC2,PRT3
BMAF1,BEATA MAFALDA,BMAF1,PRT3
BFAL2,BR. FALCÃO,BFAL2,PRT3
LGT2,LAGARTEIRO,LGT2,PRT3
EDRG4,ESTÁDIO DO DRAGÃO,EDRG4,PRT1
SCRP5,S. CRISPIM,SCRP5,PRT1
VLC1,VILA COVA,VLC1,PRT3
VLC2,VILA COVA,VLC2,PRT3
BNJ1,BONJÓIA,BNJ1,PRT3
GDM1,GODIM,GDM1,PRT1
ICAM2,IGREJA DE CAMPANHÃ,ICAM2,PRT3
ILH2,ILHÉU,ILH2,PRT3
ANT1,ANTAS (L. CIDADÃO),ANT1,PRT1
VRD2,VARANDAS,VRD2,PRT1
BRCC1,BR. COSTA CABRAL,BRCC1,PRT3
FVLH2,FONTE VELHA,FVLH2,PRT1
MCST1,MONTES DA COSTA,MCST1,MAI4
BVE2,ERMESINDE - B. V.,BVE2,MAI4
RCMB1,RIBEIRO CAMBADO,RCMB1,VLG1
LDSM1,LIDADOR-SOEIRO MENDES,LDSM1,PRT2
LDSM2,LIDADOR-SOEIRO MENDES,LDSM2,PRT2
NSHP,NORTESHOPPING,NSHP,PRT2
25AB1,25 DE ABRIL,25AB1,VLG1
25AB2,25 DE ABRIL,25AB2,VLG1
HSJ5,HOSP. S. JOÃO (URGÊNCIA),HSJ5,PRT3
HSJ6,HOSP. S. JOÃO (URGÊNCIA),HSJ6,PRT3
MCE1,MUSEU C. ELÉCTRICO,MCE1,PRT1
SMAI1,SALGUEIRO MAIA,SMAI1,PRT1
DNAP3,D. NUNO A. PEREIRA,DNAP3,MTS1
DNAP4,D. NUNO A. PEREIRA,DNAP4,MTS1
BSS6,BESSA,BSS6,PRT1
BBL,BAIRRO BESSA LEITE,BBL,PRT1
MARB,MOCIDADE ARRÁBIDA,MARB,PRT2
TEC,TV. ENTRE CAMPOS,TEC,PRT2
SRHH1,SRA. HORA (HIPER),SRHH1,MTS1
CVLO1,COVELO,CVLO1,PRT1
REAR1,R. ESTAÇÃO ARAÚJO,REAR1,MAI1
REAR2,R. ESTAÇÃO ARAÚJO,REAR2,MAI1
CARR1,CARRIÇAL,CARR1,MTS1
CARR2,CARRIÇAL,CARR2,MTS1
JFB1,JUNTA FREG. BARCA,JFB1,MAI3
FRC,FRANCELOS,FRC,VNG4
VRZL1,VARZIELA,VRZL1,PRT3
VRZL2,VARZIELA,VRZL2,PRT3
BOVT2,BOAVISTA,BOVT2,MAI4
PDR2,PADRÃO,PDR2,VLG1
RLC1,RIO LEÇA,RLC1,MAI4
STJ2,S.TA JUSTA,STJ2,PRT3
TLHA2,TELHEIRA,TLHA2,VCD8
TRI1,TRIANA,TRI1,MAI4
TRBG2,TRIBUNAL DE GAIA,TRBG2,VNG1
PND1,PENEDOS,PND1,MAI1
FBC1,FÁBRICA DO COBRE,FBC1,PRT3
ISCP1,ISCAP,ISCP1,MAI1
CNSL2,CONSOLATA,CNSL2,MAI4
VDTM1,ESPOSADE (METRO),VDTM1,MTS1
PCNS,PISCINAS,PCNS,MAI4
RRDL1,R.RODELO,RRDL1,VNG4
PSEC1,PONTE SECA,PSEC1,VLG3
RBO2,RIBEIRO,RBO2,MTS1
RBX2,RECAREI BAIXO,RBX2,MAI1
CPTO,CERCO DO PORTO,CPTO,PRT3
SAL1,SALGUEIROS,SAL1,PRT1
CUTM2,CUTAMAS,CUTM2,MAI4
ALFG2,ALFÂNDEGA,ALFG2,PRT1
ARJ2,ARAÚJO,ARJ2,MAI1
BELA1,BELA,BELA1,VNG4
ACBL1,ÁLVARES CABRAL,ACBL1,VNG4
DACM1,DR. A. COSTA MAIA,DACM1,VCD8
RGD1,REGADAS,RGD1,GDM1
MGDE1,MONTE GRANDE,MGDE1,MAI1
MRI1,MARIANI,MRI1,VNG1
CMV,CÂMARA DE VALONGO,CMV,VLG1
BRRM2,BR. RAMALDE,BRRM2,PRT2
SR4,S. ROQUE,SR4,PRT3
ACDR2,ALAMEDA CEDRO,ACDR2,VNG1
TAZ2,TAPADA AZEVEDO,TAZ2,VLG1
VNFZ2,VILA NOVA FOZ CÔA,VNFZ2,PRT3
PNG1,PEGO NEGRO,PNG1,PRT3
PNG2,PEGO NEGRO,PNG2,PRT3
FTC2,FONTE DE CONTUMIL,FTC2,PRT3
FRX3,FREIXO,FRX3,PRT3
SRC1,SRA.CAMPANHÃ,SRC1,PRT3
STCT,SOUTO CONTUMIL,STCT,PRT3
CMP1,CAMPANHÃ,CMP1,PRT1
RC1,R. CONTUMIL,RC1,PRT3
1ATZ1,ANTUNES AZEVEDO,1ATZ1,MAI3
1ATZ2,ANTUNES AZEVEDO,1ATZ2,MAI3
NCON1,NOVAS CONSTRUÇÕES,NCON1,MTS1
CM5,CAMÕES,CM5,VNG1
GENT5,GENERAL TORRES,GENT5,VNG1
GNR3,GNR,GNR3,VNG1
JFAL1,JOSÉ FALCÃO,JFAL1,VNG1
LGAJ3,LGO. ALJUBARROTA,LGAJ3,VNG1
PLU3,PONTE LUÍZ I,PLU3,VNG1
RECA1,ROT. ENG. EDGAR CARDOSO,RECA1,VNG1
RMOT1,ROSA MOTA,RMOT1,VNG1
RMOT2,ROSA MOTA,RMOT2,VNG1
EIP1,ESCOLA IRMÃOS PASSOS,EIP1,MTS1
HSM2,HOSP. STA. MARIA,HSM2,PRT1
LUG2,LUGARINHO,LUG2,PRT1
LIDM2,LIDADOR (METRO),LIDM2,VCD8
EQRS1,EÇA QUEIRÓS,EQRS1,VCD8
EQRS2,EÇA QUEIRÓS,EQRS2,VCD8
PRUE3,PEDRAS RUBRAS (METRO),PRUE3,VCD8
RBQ1,R. BOUÇA QUEIMADA,RBQ1,VLG1
RBQ2,R. BOUÇA QUEIMADA,RBQ2,VLG1
SCC2,SPORT CLUBE CANIDELO,SCC2,VNG5
ARRB2,ARRÁBIDASHOPPING,ARRB2,VNG1
UVDE2,URB. VILA D'ESTE,UVDE2,VNG2
COVN1,COVINA,COVN1,MAI4
CCB2,CAMILO C. BRANCO,CCB2,VNG1
EMZ1,EGAS MONIZ,EMZ1,VNG2
NTRT1,NUNO TRISTÃO,NTRT1,VNG4
CBD1,CABEDA,CBD1,VLG2
HSJ2,HOSP. S. JOÃO (METRO),HSJ2,PRT3
SRHH2,SRA. HORA (HIPER),SRHH2,MTS1
4CAM3,4 CAMINHOS,4CAM3,MAI4
PML2,PALMILHEIRA,PML2,MAI4
PHIP1,PEDRO HISPANO,PHIP1,MAI4
RIGR1,R. IGREJA,RIGR1,MAI4
AH,ALEX. HERCULANO,AH,VNG1
AGRO2,AGRO,AGRO2,VNG1
NZ1,NAZARÃES,NZ1,VNG4
UVDE1,URB. VILA D ESTE,UVDE1,VNG2
VLR2,VILAR,VLR2,VLG2
VALC2,VALONGO (CENTRO),VALC2,VLG1
RLC2,RIO LEÇA,RLC2,MAI4
ALF,ALFENA,ALF,VLG2
ALXH2,ALEX. HERCULANO,ALXH2,VLG2
CGK2,CALOUSTE GULBENKIAN,CGK2,MAI4
JDEU3,JOÃO DE DEUS,JDEU3,MAI4
COB3,COIMBRÕES,COB3,VNG1
RTV2,R. TENENTE VALADIM,RTV2,VNG5
28J2,28 DE JANEIRO,28J2,VNG1
EBSR1,ESC. EB 2/3 S REIS,EBSR1,VNG1
SI1,S.TO ISIDRO,SI1,PRT1
RALG,R. DA ALEGRIA,RALG,PRT1
C24A5,CAMPO 24 DE AGOSTO,C24A5,PRT1
IFOZ2,IGREJA DA FOZ,IFOZ2,PRT2
AGM1,AGRAMONTE,AGM1,PRT1
SCRP6,S. CRISPIM,SCRP6,PRT1
ALM1,ALAMEDA,ALM1,PRT1
PINM1,PINHEIRO MANSO,PINM1,PRT2
ADA3,ARCA D ÁGUA,ADA3,PRT1
JB2,JARDIM BOTÂNICO,JB2,PRT1
CSP2,C. SAÚDE PARANHOS,CSP2,PRT1
AAL1,AV.ALIADOS,AAL1,PRT1
MCBL,MERCADO DO BOLHÃO,MCBL,PRT1
INFS1,INFANTE SANTO,INFS1,GDM1
JPR1,JOÃO PINTO RIBEIRO,JPR1,MAI4
JPR2,JOÃO PINTO RIBEIRO,JPR2,MAI4
MED2,MEDANCELHE,MED2,MAI4
MEIR,MEIRAL,MEIR,GDM1
CTN2,CASTANHEIRA,CTN2,MAI4
VDN1,VENDA NOVA,VDN1,GDM1
BZ2,BAZAR,BZ2,MAI4
TPT1,TV. DA PONTE,TPT1,GDM1
STBX2,SOUTELO BAIXO,STBX2,GDM1
CHV1,CHÃO VERDE,CHV1,GDM1
ARSM1,AREOSA (MERCADO),ARSM1,MAI4
AAS1,ANTÓNIO  AUG.SILVA,AAS1,GDM1
RTE2,RIO TINTO (ESTAÇÃO),RTE2,MAI4
PIT2,PADRE IVO TONELLI,PIT2,MAI4
CRR1,CARREIRA,CRR1,GDM1
CN1,CASAIS NOVOS,CN1,MAI4
CN2,CASAIS NOVOS,CN2,MAI4
LGCL2,LGO.CAMPO LINDO,LGCL2,PRT1
TVLR1,TEATRO VILARINHA,TVLR1,PRT2
MATM3,MATOSINHOS MERCADO,MATM3,MTS1
STL2,STA.LUZIA,STL2,MAI1
CSXN2,C. SEIXO (NORTE),CSXN2,MAI1
CRV2,CARCAVELOS,CRV2,MTS1
THB2,TV. HENRIQUE BRAVO,THB2,MAI1
DRB1,DR. BARROS,DRB1,MAI1
LARJ1,LARANJEIRAS,LARJ1,MAI1
IMAI2,IGREJA DA MAIA,IMAI2,MAI1
PRG2,PR. DA GALIZA,PRG2,PRT1
PRG4,PR. DA GALIZA,PRG4,PRT1
PCV2,PERO COVILHÃ,PCV2,PRT2
FGTR2,FOGUETEIROS,FGTR2,MAI1
PSSM2,PASSOS MANUEL,PSSM2,MTS1
CRMT2,CÂNDIDO REIS (METRO),CRMT2,MAI1
MSB1,MONTE S. BRÁS,MSB1,MTS2
TOR4,TOURAIS,TOR4,MTS1
BAT1,BATARIA,BAT1,MTS2
MTB3,MONTE DOS BURGOS,MTB3,MAI1
OLV4,OLIVEIRAS,OLV4,MTS2
RGDI4,REGADIO,RGDI4,MTS1
SSD2,SANTOS DIAS,SSD2,MAI1
MAIE1,MAIA (ESTÁDIO),MAIE1,MAI1
GODC1,GONDOMAR (CÂMARA),GODC1,GDM1
SRSD1,S.RA DA SAÚDE,SRSD1,MAI1
GUFS1,GUEIFÃES,GUFS1,MAI1
AS2,ANTÓNIO SANTOS,AS2,MAI4
MOD2,MOALDE,MOD2,MAI1
IGMI2,IGREJA (MILHEIROS),IGMI2,MAI4
PBSS1,PINTO BESSA,PBSS1,PRT1
BFB,BONFIM BARREIROS,BFB,PRT3
EDRG3,ESTÁDIO DO DRAGÃO,EDRG3,PRT1
MTES1,MONTE ESPINHO,MTES1,MTS2
TMPR1,TV.MELO PEREIRA,TMPR1,MAI1
FAP1,FREI ÁLVARO PINTO,FAP1,MAI1
PCRR1,PONTE CARRO,PCRR1,MTS1
CUS4,CUSTÓIAS,CUS4,MAI1
RFER2,R.FERROVIÁRIO,RFER2,MTS1
ARS4,AREOSA,ARS4,PRT3
DJ32,D.JOÃO III,DJ32,PRT2
BRCC2,BR. COSTA CABRAL,BRCC2,PRT3
PLIM1,PIRES DE LIMA,PLIM1,PRT1
BRCP1,BR. CAMPINAS,BRCP1,PRT2
MSTO2,MONSANTO,MSTO2,PRT1
IGAL2,IGREJA DE  ALDOAR,IGAL2,PRT2
ANT2,ANTAS (L. CIDADÃO),ANT2,PRT1
SRP,SERPA PINTO,SRP,VNG1
MP3,MONTE DOS PIPOS,MP3,MTS1
MP4,MONTE DOS PIPOS,MP4,MTS1
BCNT,BR.CONTUMIL,BCNT,PRT3
CSSH1,C.SAÚDE DA  SRA.HORA,CSSH1,MTS1
LVR3,ROT.LAVRADOR,LVR3,MAI1
SAL3,SALGUEIROS,SAL3,PRT1
SAL4,SALGUEIROS,SAL4,PRT1
PDZ2,1º DE DEZEMBRO,PDZ2,MTS1
ARSR1,ROT. DA AREOSA,ARSR1,PRT3
JAS1,JOAQUIM ALVES DA SILVA (SUL),JAS1,MTS2
JAS2,JOAQUIM ALVES DA SILVA (SUL),JAS2,MTS2
BRRS,BARROSA,BRRS,VNG1
TCVC,TV.CONSELHEIRO VELOSO DA CRUZ,TCVC,VNG1
DP5,D.PEDRO V,DP5,VNG1
ALT1, ALTOS,ALT1,MAI1
BRRO4,BARREIRO,BRRO4,VCD8
UVDE3,URB. VILA D'ESTE,UVDE3,VNG2
DJ1,D.JOÃO I,DJ1,MTS1
CFM,COMENDADOR FERREIRA  MATOS,CFM,MTS1
CHAS3,CHÃS,CHAS3,VNG1
ARRB3,ARRÁBIDASHOPPING,ARRB3,VNG1
VGM5,VASCO DA GAMA,VGM5,VLG2
VGM6,VASCO DA GAMA,VGM6,VLG2
TRD6,TRINDADE,TRD6,PRT1
JFB3,JUNTA FREG. BARCA,JFB3,MAI3
GEST,GESTALINHO,GEST,MAI3
BARC1,BARCA,BARC1,MAI3
BARC2,BARCA,BARC2,MAI3
SRGB3,S.ROQUE G. BARROS,SRGB3,PRT3
TRD3,TRINDADE,TRD3,PRT1
TRD4,TRINDADE,TRD4,PRT1
FTMR1,FONTE MOURISCA,FTMR1,VLG1
FTMR2,FONTE MOURISCA,FTMR2,VLG1
VIS5,VISO (METRO),VIS5,PRT2
MFOT1,MONFORTE,MFOT1,VLG2
MFOT2,MONFORTE,MFOT2,VLG2
MANH1,MANINHOS,MANH1,MAI1
MANH2,MANINHOS,MANH2,MAI1
MS2,MOUZINHO  SILVEIRA,MS2,PRT1
JA1,JARDINS DA ARRÁBIDA,JA1,VNG1
BRNS,BERNARDO SANTARENO,BRNS,MTS1
ACAR,ANTÓNIO  CARNEIRO,ACAR,MTS1
PDR3,LARGO DO PADRÃO,PDR3,PRT1
PDR4,PADRÃO,PDR4,PRT1
AZV1,AZEVEDO,AZV1,PRT3
SONH1,SONHOS,SONH1,MAI4
NATV,NOSSA SRA. DA NATIVIDADE,NATV,MAI4
LGT3,LAGARTEIRO,LGT3,PRT3
LGT4,LAGARTEIRO,LGT4,PRT3
PDB1,PEDROUÇOS-BOMBEIROS,PDB1,MAI4
PDCM1,PEDROUÇOS (CEMITÉRIO),PDCM1,MAI4
COD3,LGO DA CODICEIRA,COD3,VLG2
COD4,CODICEIRA,COD4,VLG2
BJ3,BENTO JÚNIOR,BJ3,PRT1
FG3,FARIA GUIMARÃES,FG3,PRT1
ABM1,ALBERTO MACEDO,ABM1,PRT2
ABM2,ALBERTO MACEDO,ABM2,PRT2
BRP1,BAIRRO DA PREVIDÊNCIA,BRP1,PRT2
BRP2,BAIRRO DA PREVIDÊNCIA,BRP2,PRT2
BRV3,BAIRRO DA VILARINHA,BRV3,PRT2
BRV4,BAIRRO DA VILARINHA,BRV4,PRT2
VGM3,AV.VASCO DA GAMA,VGM3,MTS1
RLG3,RUA DA LAGOA,RLG3,MTS1
FTCC5,FONTE DO CUCO,FTCC5,MTS1
FTCC6,FONTE DO CUCO,FTCC6,MTS1
RLG4,RUA DA LAGOA,RLG4,MTS1
VGM4,AV.VASCO DA GAMA,VGM4,MTS1
CSSH3,CENTRO DE SAÚDE SRA HORA,CSSH3,MTS1
BCM5,BOAVISTA-CASA DA MÚSICA,BCM5,PRT1
CMS1,CASA DA MÚSICA (METRO),CMS1,PRT1
EPC1,EST PRISIONAL DE CUSTOIAS,EPC1,MAI1
CUS3,CUSTÓIAS,CUS3,MAI1
SMAT3,SR.  MATOSINHOS,SMAT3,MTS1
SMAT4,SR. MATOSINHOS,SMAT4,MTS1
FRN1,FORNO,FRN1,MAI4
LVR2,ROT.LAVRADOR,LVR2,MAI1
CSAD1,CENTRO SAÚDE,CSAD1,MAI4
PEDR2,PEDROUÇOS DE BAIXO,PEDR2,MAI4
FRA2,FEIRA,FRA2,VCD8
PDM3,PADRÃO MOREIRA,PDM3,MAI2
RSR3,R.SENHOR,RSR3,PRT2
SMM6,S. MAMEDE,SMM6,MAI1
SM2,SÁ E MELO,SM2,MAI1
SMM3,S. MAMEDE,SMM3,MAI1
CTIO1,CUSTIÓ,CTIO1,MAI1
BVLB1,B. V. LEÇA BALIO,BVLB1,MAI1
BRBQ1,BAIRRO DA BIQUINHA,BRBQ1,MTS1
STL1,STA.LUZIA,STL1,MAI1
PTLS3,PONTE LEÇA (SUL),PTLS3,MTS1
FRXI3,FREIXIEIRO (E.N.107),FRXI3,MTS2
SMAT2,SENHOR MATOSINHOS,SMAT2,MTS1
SDMC3,SENDIM (CEMITÉRIO),SDMC3,MTS1
GOA1,GOA,GOA1,MTS1
ACD3,AFONSO CORDEIRO,ACD3,MTS1
PJUV2,POUSADA JUVENTUDE,PJUV2,PRT2
BRA4,BR. DO AMIAL,BRA4,PRT2
CRTO1,CRASTO,CRTO1,PRT2
ST2,S. TOMÉ,ST2,PRT3
FG1,FARIA GUIMARÃES,FG1,PRT1
IPRN2,IGREJA DE PARANHOS,IPRN2,PRT3
RPM2,R.PARTICULAR MONSANTO,RPM2,PRT1
CI22,CINTURA INTERNA,CI22,PRT1
FARM2,FORÇAS ARMADAS,FARM2,MAI4
VDN4,VENDA NOVA,VDN4,GDM1
BZ1,BAZAR,BZ1,MAI4
CVN1,CAVADA NOVA,CVN1,GDM1
FRR2,FERRARIA,FRR2,GDM1
ENV2,ESTRADA NOVA,ENV2,MAI4
BV2,BELA VISTA,BV2,GDM2
VNEM2,VITORINO NEMESIO,VNEM2,GDM1
EDM1,ESTR. D. MIGUEL,EDM1,GDM1
MTP1,MONTE PEDRO,MTP1,GDM1
ATSR2,ALTO DA SERRA,ATSR2,GDM2
C302,CURVA DO 30,C302,GDM2
SPC,S. PEDRO DA COVA,SPC,GDM2
ATSR1,ALTO DA SERRA,ATSR1,GDM2
C301,CURVA DO 30,C301,GDM2
PDEH1,PADRE DEHON,PDEH1,GDM1
PDEH2,PADRE DEHON,PDEH2,GDM1
BRR2,BARREIROS,BRR2,GDM1
STE5,S.TA EULÁLIA,STE5,GDM1
VARZ2,VÁRZEA,VARZ2,GDM1
CB1,CARVALHA DE BAIXO,CB1,GDM1
VINH2,VINHAL,VINH2,GDM1
ESTV2,ESTIVADA,ESTV2,GDM1
DAC1,DR. AMÉRICO COSTA,DAC1,GDM1
VARZ1,VÁRZEA,VARZ1,GDM1
DAC2,DR. AMÉRICO COSTA,DAC2,GDM1
CV1,CARVALHA,CV1,GDM1
STO2,S.TA OVAIA,STO2,GDM1
STCZ1,S.TA CRUZ,STCZ1,GDM1
MFP1,M. FERREIRA PINTO,MFP1,MAI1
STN1,SANTANA,STN1,MAI1
HSJ1,HOSP. S. JOÃO (METRO),HSJ1,PRT3
PAST1,PASTELEIRA,PAST1,PRT2
CPOV1,CASA DO POVO,CPOV1,MTS2
PLNT1,PLANETÁRIO,PLNT1,PRT1
AALB,AFONSO  ALBUQUERQUE,AALB,PRT2
HIP2,HIPERMERCADO,HIP2,MAI3
BIC4,BICALHO,BIC4,PRT1
MCU3,MACAU,MCU3,MAI1
TARG1,TV. DE ARDEGÃES,TARG1,MAI4
CRM2,CASA DE RAMALDE,CRM2,PRT2
APRD1,ARCO DO PRADO,APRD1,VNG1
CGG,COMBATENTES G.GUERRA,CGG,GDM1
VDES,VILA D' ESTE (ESCOLAS),VDES,VNG2
AR2,ALMIRANTE REIS,AR2,MAI1
BS5,BOAVISTA-B.SUCESSO,BS5,PRT1
PASS,PASSEIO ALEGRE,PASS,PRT2
TVA1,TV. ALDEIA,TVA1,PRT3
PNG3,PÊGO NEGRO,PNG3,PRT3
JD1,JOÃO DE DEUS,JD1,PRT3
AREI2,AREIAS,AREI2,PRT3
JD4,JOÃO DE DEUS,JD4,PRT3
PNG4,PÊGO NEGRO,PNG4,PRT3
TVA2,TV. ALDEIA,TVA2,PRT3
CCA1,CONS.COSTA AROSO,CCA1,MAI1
CCA2,CONS.COSTA AROSO,CCA2,MAI1
DJM1,D.JOÃO II (METRO),DJM1,VNG1
DJM2,D.JOÃO II (METRO),DJM2,VNG1
FEP1,FACULDADE DE ECONOMIA,FEP1,PRT3
FEP2,FACULDADE DE ECONOMIA,FEP2,PRT3
SCAL1,SR. DO CALVÁRIO,SCAL1,GDM1
SCAL2,SR.DO CALVÁRIO,SCAL2,GDM1
FNZ1,FÂNZERES (METRO),FNZ1,GDM1
FNZ2,FÂNZERES (METRO),FNZ2,GDM1
PRS3,PRESA,PRS3,VLG1
CMS6,CASA DA MÚSICA (METRO),CMS6,PRT1
CTS1,CASTELOS,CTS1,PRT1
CTS2,CASTELOS,CTS2,PRT1
URBP3,URB. PRELADA II,URBP3,PRT2
PREL1,PRELADA,PREL1,PRT2
CAVE4,LGO. DA CRUZ,CAVE4,VNG1
MCBL1,MERCADO DO BOLHÃO,MCBL1,PRT1
SBNT3,EST. S.BENTO,SBNT3,PRT1
SCAL4,SR. DO CALVÁRIO,SCAL4,GDM1
PASS1,PASSEIO ALEGRE,PASS1,PRT2
DTR,DIU/TEATRO,DTR,PRT2
MTLB2,MOSTEIRO LEÇA DO BALIO,MTLB2,MAI1
MTLB1,MOSTEIRO LEÇA DO BALIO,MTLB1,MAI1
CSE1,C.SAÚDE DE ERMESINDE,CSE1,MAI4
CSE2,C.SAÚDE DE ERMESINDE,CSE2,MAI4
MARG1,MARGINAL,MARG1,MAI4
MARG2,MARGINAL,MARG2,MAI4
MV3,MONTE DA VIRGEM,MV3,VNG2
R15,RUA 15,R15,VCD8
R1,RUA 1,R1,VCD8
R10,RUA 10,R10,VCD8
BFTM3,BR. FONTE DA MOURA,BFTM3,PRT2
BFTM4,BR.FONTE DA MOURA,BFTM4,PRT2
PDVD5,PEDRA VERDE,PDVD5,PRT2
CSA3,C.SAÚDE DE ALDOAR,CSA3,PRT2
ALCF1,ALCAIDE FARIA,ALCF1,PRT2
ISEP1,I.S.E.P.,ISEP1,PRT3
ISEP2,I.S.E.P.,ISEP2,PRT3
BLG1,BERLENGAS,BLG1,PRT3
BLG2,BERLENGAS,BLG2,PRT3
BRA1,BR.DO AMIAL,BRA1,PRT2
CSP1,C. SAÚDE PARANHOS,CSP1,PRT1
UFP1,UNIV. F. PESSOA,UFP1,PRT3
CONS3,CONSTITUIÇÃO,CONS3,PRT1
COMB2,COMBATENTES,COMB2,PRT1
SAL2,SALGUEIROS,SAL2,PRT1
CI21,CINTURA INTERNA,CI21,PRT1
CI31,CINTURA INTERNA,CI31,PRT1
LGCL1,LGO.CAMPO LINDO,LGCL1,PRT1
CPSF2,CAPELA SRA.FÁTIMA,CPSF2,PRT2
CPU2,CAPUCHINHOS,CPU2,PRT2
RAEP4,ROT. A.E.P.,RAEP4,PRT2
SRP1,SRA.PENHA,SRP1,PRT2
SRP2,S.RA PENHA,SRP2,PRT2
SRPT1,S.RA DO PORTO,SRPT1,PRT2
FZIN1,FRANCOS Z. INDUSTR,FZIN1,PRT2
RUL1,RUELA,RUL1,PRT2
CTV2,COTOVIAS,CTV2,PRT2
MPAZ2,MAN.P.AZEVEDO 2,MPAZ2,PRT2
CNG2,CONGOSTAS,CNG2,PRT2
ANTG1,ANTUNES GUIMARÃES,ANTG1,PRT2
BRV1,BAIRRO VILARINHA,BRV1,PRT2
BSS1,BESSA,BSS1,PRT1
BRRM1,BR. RAMALDE,BRRM1,PRT2
BRSE1,BR. STO. EUGÉNIO,BRSE1,PRT2
AV1,ALTO DO VISO,AV1,PRT2
LMBG1,LOMBA (GATÕES),LMBG1,MTS1
MTCT2,MONTE CASTELO,MTCT2,MTS1
LMB1,LOMBA,LMB1,MTS1
LIN2,LINHARES,LIN2,MTS1
RBO1,RIBEIRO,RBO1,MTS1
FLU3,FLUVIAL,FLU3,PRT2
STC1,S.TA CATARINA,STC1,PRT2
PINM3,PINHEIRO MANSO,PINM3,PRT2
PLM1,PALMEIRAS,PLM1,PRT2
PLM2,PALMEIRAS,PLM2,PRT2
PG1,PAULO DA GAMA,PG1,PRT2
PGM1,PAULO DA GAMA,PGM1,PRT2
FLU2,FLUVIAL,FLU2,PRT2
PCL2,PADRE LUIS CABRAL,PCL2,PRT2
JBR2,JOÃO BARROS,JBR2,PRT2
GC12,GOMES COSTA 1,GC12,PRT2
PJUV1,POUSADA JUVENTUDE,PJUV1,PRT2
CRVH2,CORDOARIA VELHA,CRVH2,PRT2
TRR3,TORRES,TRR3,PRT2
ALX2,ALEIXO,ALX2,PRT2
DJ31,D.JOÃO III,DJ31,PRT2
ALX1,ALEIXO,ALX1,PRT2
FLU1,FLUVIAL,FLU1,PRT2
MRG1,MIRAGAIA,MRG1,PRT1
MRG2,MIRAGAIA,MRG2,PRT1
ALFG1,ALFÂNDEGA,ALFG1,PRT1
VTO4,VIRIATO,VTO4,PRT1
HSA1,HOSP. STO. ANTÓNIO,HSA1,PRT1
PAL5,PALÁCIO,PAL5,PRT1
PAL4,PALÁCIO,PAL4,PRT1
JM2,JUNTA MASSARELOS,JM2,PRT1
PMQ1,PEDRO MESQUITA,PMQ1,MAI1
PMQ2,PEDRO MESQUITA,PMQ2,MAI1
AAX1,ANTONIO ALEIXO,AAX1,MAI1
CTSS1,CATASSOL,CTSS1,MAI1
PDAM4,PADRE AMÉRICO,PDAM4,MAI1
LVR1,ROT.LAVRADOR,LVR1,MAI1
CBN1,COMBONIANOS,CBN1,MAI1
FLO1,FLORES,FLO1,MAI1
MTA2,MOUTA,MTA2,MAI1
MTA3,MOUTA,MTA3,MAI1
PDAM3,PADRE AMÉRICO,PDAM3,MAI1
PDAM2,PADRE AMÉRICO,PDAM2,MAI1
AAX2,ANTONIO ALEIXO,AAX2,MAI1
GUFE1,GUEIFÃES (ESC.EB2/3),GUFE1,MAI1
GUFE2,GUEIFÃES (ESC.EB2/3),GUFE2,MAI1
CTSS2,CATASSOL,CTSS2,MAI1
MALM1,MALMEQUERES,MALM1,MAI1
MALM2,MALMEQUERES,MALM2,MAI1
PDAM1,PADRE AMÉRICO,PDAM1,MAI1
GUFS2,GUEIFÃES,GUFS2,MAI1
FLO2,FLORES,FLO2,MAI1
LAGE2,LAGE,LAGE2,MAI1
LAGE3,LAGE,LAGE3,MAI1
DMAN1,D. MANUEL II,DMAN1,MAI1
DMAN2,D. MANUEL II,DMAN2,MAI1
VSG1,VASCO GAMA,VSG1,MAI1
ARCO2,ARCO,ARCO2,MAI1
OUTE2,OUTEIRO,OUTE2,MAI1
LUCM1,LUIS CAMÕES,LUCM1,MAI1
LUCM2,LUIS CAMÕES,LUCM2,MAI1
BLD1,BALDÕES,BLD1,MTS2
CONS1,CONSTITUIÇÃO,CONS1,PRT1
CF1,CONDE FERREIRA,CF1,PRT3
CF2,CONDE FERREIRA,CF2,PRT3
AA2,ALTO DA AREOSA,AA2,PRT3
OUTE3,OUTEIRO,OUTE3,PRT1
OUTE4,OUTEIRO,OUTE4,PRT1
RCON,R. CONTUMIL,RCON,PRT3
RGSM2,RODRIGUES SEMIDE,RGSM2,PRT3
ENX1,ENXURREIRAS,ENX1,PRT3
AML3,AMIAL,AML3,PRT3
AML2,AMIAL,AML2,PRT3
HSJ11,HOSP. S. JOÃO (CIRCUNVALAÇÃO),HSJ11,PRT3
HSJ9,HOSP. S. JOÃO (CIRCUNVALAÇÃO),HSJ9,PRT3
HSJ7,HOSP. S. JOÃO (URGÊNCIA),HSJ7,PRT3
HSJ12,HOSP. S. JOÃO (CIRCUNVALAÇÃO),HSJ12,PRT3
STJ4,STA. JUSTA,STJ4,PRT3
TLHR2,TELHEIRA,TLHR2,PRT3
ASP3,ASPRELA,ASP3,PRT3
IPO5,IPO (CIRCUNVAL.),IPO5,PRT3
SVT2,SILVA TAPADA,SVT2,PRT1
IB2,ILHA BRAVA,IB2,PRT3
IB3,ILHA BRAVA,IB3,PRT3
IPO4,IPO (CIRCUNVAL.),IPO4,PRT3
ARS2,AREOSA,ARS2,PRT3
ARS3,AREOSA,ARS3,PRT3
PLIM2,PIRES DE LIMA,PLIM2,PRT1
AVC2,AVAL CIMA,AVC2,PRT1
AVTE1,ALMEIDA VALENTE,AVTE1,PRT3
AVTE2,ALMEIDA VALENTE,AVTE2,PRT3
CVLO,COVELO,CVLO,PRT1
CAB1,CABINE,CAB1,VNG4
CAB2,CABINE,CAB2,VNG4
CAB3,CABINE,CAB3,VNG4
CAB4,CABINE,CAB4,VNG4
ESGZ1,E. SEC. G. ZARCO,ESGZ1,MTS1
ESGZ2,E. SEC. G. ZARCO,ESGZ2,MTS1
GCZ6,E. SEC. G. ZARCO,GCZ6,MTS1
PRSM1,PARAÍSO (METRO),PRSM1,PRT1
PRSM2,PARAÍSO (METRO),PRSM2,PRT1
SARI1,SARILHOS,SARI1,MTS1
SARI2,SARILHOS,SARI2,MTS1
MAKR5,MAKRO,MAKR5,VNG1
MAKR6,MAKRO,MAKR6,VNG1
GONS2,GONÇALO SAMPAIO,GONS2,PRT1
GONS1,GONÇALO SAMPAIO,GONS1,PRT1
BRRS1,BARROCAS,BRRS1,PRT3
BRRS2,BARROCAS,BRRS2,PRT3
RTES2,RIO TINTO (ESC. SEC.),RTES2,MAI4
BARO2,BAIRRO ANT. AROSO,BARO2,PRT2
ESRT1,ESC.SEC.de RIO TINTO,ESRT1,MAI4
ESRT2,ESC.SEC.de RIO TINTO,ESRT2,MAI4
PASS2,PASSEIO ALEGRE,PASS2,PRT2
DDN1,D.DINIS,DDN1,MAI4
DDN2,D.DINIS,DDN2,MAI4
RMAR1,R.MARINHA,RMAR1,VNG4
RFON2,RIO DA FONTE,RFON2,VNG1
RMAR2,R.MARINHA,RMAR2,VNG4
1LOI3,LÓIOS,1LOI3,PRT1
PUNV,PÓLO UNIVERSITÁRIO (METRO),PUNV,PRT3
PRS4,PRESA,PRS4,VLG1
CZV4,CRUZ VERMELHA,CZV4,PRT1
HSM3,HOSP. S.TA MARIA,HSM3,PRT1
PRF2,PR. DAS FLORES,PRF2,PRT1
ESCN1,ESCOLA NORMAL,ESCN1,PRT1
BFM2,BONFIM,BFM2,PRT1
BL2,BARROS LIMA,BL2,PRT1
AUS,ESC. AURÉLIA SOUSA,AUS,PRT1
FTNH1,FONTINHA,FTNH1,PRT1
HMGL4,HOSP.MAGALHÃES LEMOS,HMGL4,PRT2
BFTM1,BR. FONTE DA MOURA,BFTM1,PRT2
PQC2,PARQUE DA CIDADE,PQC2,PRT2
ALD2,ALDOAR JUNTA  FREG.,ALD2,PRT2
REAL2,REAL,REAL2,PRT2
VLRA3,VILARINHA,VLRA3,PRT2
ELVG1,ELEVADOR GUINDAIS,ELVG1,PRT1
ELVG2,ELEVADOR GUINDAIS,ELVG2,PRT1
PRR3,PR. DA REPÚBLICA,PRR3,PRT1
BTLH1,BATALHA,BTLH1,PRT1
MPL11,MARQUÊS,MPL11,PRT1
PRDJ1,PR. D. JOÃO I,PRDJ1,PRT1
GCRT2,GONÇALO CRISTÓVÃO,GCRT2,PRT1
BTLH5,BATALHA,BTLH5,PRT1
MPL9,MARQUÊS,MPL9,PRT1
BLRB2,BOLHÃO,BLRB2,PRT1
SP4,S.PEDRO,SP4,MTS1
FSTO1,FERR. DOS SANTOS,FSTO1,PRT3
PSR1,PASSARIAS,PSR1,VLG2
PSR2,PASSARIAS,PSR2,VLG2
RFND1,R. FUNDA,RFND1,VLG2
RFND2,R.FUNDA,RFND2,VLG2
BCM4,BOAVISTA-CASA DA MÚSICA,BCM4,PRT1
AQL2,ANTERO DE QUENTAL,AQL2,PRT1
CVI4,CARVALHIDO,CVI4,PRT1
SPTO1,SERPA PINTO,SPTO1,PRT1
RA1,RAMADA ALTA,RA1,PRT1
CVA2,CARVALHOSA,CVA2,PRT1
BS1,BOAVISTA - B.SUCESSO,BS1,PRT1
BS2,BOAVISTA - B.SUCESSO,BS2,PRT1
ICDF1,IGREJA CEDOFEITA,ICDF1,PRT1
AVF2,AV.FRANÇA,AVF2,PRT1
BSB,SAPADOR. BOMBEIROS,BSB,PRT1
BCG,BCG,BCG,PRT1
PISC,PISCINA CONSTIT.,PISC,PRT1
HML1,HOSPITAL MILITAR,HML1,PRT1
PRR5,PR. DA REPÚBLICA,PRR5,PRT1
CZV1,CRUZ VERMELHA,CZV1,PRT1
NAT2,NATÁRIA,NAT2,PRT1
MTCV,MONTE CATIVO,MTCV,PRT1
CMIC2,CAROLINA MICHAELIS,CMIC2,PRT1
MATR,MATERNIDADE,MATR,PRT1
FIG,FIGUEIROA,FIG,PRT1
HML2,HOSPITAL MILITAR,HML2,PRT1
FTC1,FONTE DE CONTUMIL,FTC1,PRT3
NAT1,NATÁRIA,NAT1,PRT1
QTAM1,QUINTA AMARELA,QTAM1,PRT1
QTAM2,QUINTA AMARELA,QTAM2,PRT1
AQL1,ANTERO DE QUENTAL,AQL1,PRT1
CVI1,CARVALHIDO,CVI1,PRT1
CVI3,CARVALHIDO,CVI3,PRT1
CZV3,CRUZ VERMELHA,CZV3,PRT1
EMDN1,EMÍDIO NAVARRO,EMDN1,VLG1
EMDN2,EMÍDIO NAVARRO,EMDN2,VLG1
PRA1,PEREIRAS,PRA1,VLG1
PRA2,PEREIRAS,PRA2,VLG1
JLS1,JULIÃO SARMENTO,JLS1,VLG1
JLS2,JULIÃO SARMENTO,JLS2,VLG1
VLG5,VALONGO-CONTINENTE,VLG5,VLG1
PDC,PÁDUA CORREIA,PDC,VNG1
FEUP1,FACULDADE DE ENGENHARIA,FEUP1,PRT3
FEUP2,FACULDADE DE ENGENHARIA,FEUP2,PRT3
SJBC1,S.JOÃO BOSCO,SJBC1,PRT2
SJBC2,S.JOÃO BOSCO,SJBC2,PRT2
APRD3,ARCO DO PRADO,APRD3,VNG1
LV4,LAVOURAS,LV4,VNG1
CMSM1,CEMITÉRIO STA. MARINHA,CMSM1,VNG1
BVC2,B.V. COIMBRÕES,BVC2,VNG1
CCC3,CLUBE CAÇADORES,CCC3,VNG1
CRVL1,CRAVEL,CRVL1,VNG1
RTES1,RIO TINTO (ESC. SEC.),RTES1,MAI4
AZV2,AZEVEDO,AZV2,PRT3
MLH5,MOLHE,MLH5,PRT2
RFAR1,FOZ,RFAR1,PRT2
PASS3,PASSEIO ALEGRE,PASS3,PRT2
PASS4,PASSEIO ALEGRE,PASS4,PRT2
LION1,LIONESA,LION1,MAI1
PVC1,PÊRO VAZ CAMINHA,PVC1,PRT2
ISRH4,IGREJA SENHORA DA HORA,ISRH4,PRT2
SHRM4,SENHORA DA HORA (METRO),SHRM4,PRT2
CVI6,CARVALHIDO,CVI6,PRT1
ESR1,ESC.SOARES DOS REIS,ESR1,PRT1
IGRL3,IGREJA DE LEÇA,IGRL3,MTS2
MRR2,MARRACUENE,MRR2,PRT1
AZV,AZEVEDO,AZV,PRT3
BRB3,BERNARDIM RIBEIRO,BRB3,PRT3
BRB4,BERNARDIM RIBEIRO,BRB4,PRT3
ICAM1,IGREJA CAMPANHÃ,ICAM1,PRT3
FMAG,FERNÃO MAGALHÃES,FMAG,PRT3
FRNS2,FORNOS,FRNS2,PRT1
PTDM2,PTE.D.MARIA PIA,PTDM2,PRT1
CMP4,CAMPANHÃ,CMP4,PRT1
SRC2,SRA.CAMPANHÃ,SRC2,PRT3
PRF1,PR. DAS FLORES,PRF1,PRT1
TPR,TV. PRESA,TPR,PRT3
VML,VIELA MEIRAL,VML,PRT3
VNFZ1,VILA NOVA FOZ CÔA,VNFZ1,PRT3
CNTM,CONTUMIL (METRO),CNTM,PRT3
CSS2,CAPELA SRA. SAÚDE,CSS2,PRT1
CHOL2,CHAVES OLIVEIRA,CHOL2,PRT3
EDP2,EDP,EDP2,PRT1
CRJ1,CORUJEIRA,CRJ1,PRT3
CSC,C. SAÚDE CAMPANHÃ,CSC,PRT1
RAZ,R. AZEVEDO,RAZ,PRT3
PREG,PESO DA RÉGUA,PREG,PRT3
MPL3,MARQUÊS,MPL3,PRT1
MTT2,MONTE TADEU,MTT2,PRT1
CSS3,CAPELA S.RA SAÚDE,CSS3,PRT1
MPL1,MARQUÊS,MPL1,PRT1
SI2,STO. ISIDRO,SI2,PRT1
DJOA4,D. JOÃO IV,DJOA4,PRT1
TXP1,TEIXEIRA PASCOAIS,TXP1,PRT1
JMRR1,JARDIM DO MORRO,JMRR1,VNG1
TRBG1,TRIBUNAL DE GAIA,TRBG1,VNG1
MJP1,MAJOR PÁLA,MJP1,VNG1
ALPR1,ALFÉRES PEREIRA,ALPR1,VNG1
MIM1,MIMOSAS,MIM1,VNG2
NVL2,NOVA LISBOA,NVL2,VNG4
MTE,MONTE,MTE,VNG4
ARRB1,ARRÁBIDASHOPPING,ARRB1,VNG1
INFH1,INFANTE D. HENRIQUE,INFH1,VNG1
FTN2,FONTE NOVA,FTN2,VNG1
CDL2,CANDAL,CDL2,VNG1
MIM2,MIMOSAS,MIM2,VNG2
ISS1,ISOLINO SOUSA,ISS1,VNG4
SNG1,SOUSA NOGUEIRA,SNG1,VNG4
TLR,TV. LOUREIRO,TLR,VNG4
CRST2,CRASTO,CRST2,VNG4
JP2,JOSÉ PORTUGAL,JP2,VNG4
AGU1,AGUIM,AGU1,VNG4
GJ1,GOMES JÚNIOR,GJ1,VNG4
GJ2,GOMES JÚNIOR,GJ2,VNG4
PTD2,PITADA,PTD2,VNG4
ALVS2,JOAQUIM ALVES SILVA,ALVS2,MTS2
HG3,HOSP. GAIA,HG3,VNG1
GENT,GENERAL TORRES,GENT,VNG1
CM3,CAMÕES,CM3,VNG1
PLU2,PONTE LUÍZ I,PLU2,VNG1
LARZ,LAROZE ROCHA,LARZ,PRT2
STLZ2,S.TA LUZIA,STLZ2,PRT2
VDTM2,ESPOSADE (METRO),VDTM2,MTS1
CMEI1,CASTRO MEIRELES,CMEI1,MAI4
CMEI2,CASTRO MEIRELES,CMEI2,MAI4
REXP2,ROT. DA EXPONOR,REXP2,MTS2
STA1,STA. APOLONIA,STA1,MAI1
TLN2,TV. DE LINHARES,TLN2,MAI1
AZC1,AZENHA DE CIMA,AZC1,MTS1
ABMG1,ABADE MONDEGO,ABMG1,MTS2
GNOR1,GONDIVAI (NORTE),GNOR1,MAI1
GNOR2,GONDIVAI (NORTE),GNOR2,MAI1
AJA2,PIAS (METRO),AJA2,MAI1
RNSG1,R. NOVA S. GENS,RNSG1,MAI1
RBX1,RECAREI BAIXO,RBX1,MAI1
RDS2,R. DO SENHOR,RDS2,MAI1
REAL1,REAL,REAL1,PRT2
STA2,STA. APOLONIA,STA2,MAI1
TMPR2,TV. MELO PEREIRA,TMPR2,MAI1
TLHA1,TELHEIRA,TLHA1,VCD8
C61,CAIS 6,C61,MTS2
VFR1,VILARINHO FREIRES,VFR1,MAI1
MTES2,MONTE ESPINHO,MTES2,MTS2
PLG2,PADRÃO DA LÉGUA,PLG2,MAI1
PTM2,PONTE DE MOREIRA,PTM2,MAI1
QCM4,QUATRO CAMINHOS,QCM4,PRT2
QSEC1,QUINTA SECA,QSEC1,MTS1
VFR2,VILARINHO FREIRES,VFR2,MAI1
PP2,PONTE DA PEDRA,PP2,MAI1
ESP2,ESPOSADE,ESP2,MAI1
FNTL1,FONTE LUMINOSA,FNTL1,MTS1
TLN1,TV. DE LINHARES,TLN1,MAI1
BRG1,BR.GUARDAS,BRG1,MTS2
BRG2,BR.GUARDAS,BRG2,MTS2
BRTC5,BRITO CAPELO,BRTC5,MTS1
VNEM1,VITORINO NEMESIO,VNEM1,GDM1
AFHQ3,AFONSO  HENRIQUES,AFHQ3,MTS1
AGAS1,AGOST. A. SOUSA,AGAS1,GDM1
AGAS2,AGOSTINHO A. SOUSA,AGAS2,GDM1
BLFZ1,BOLHÃO (FIRMEZA),BLFZ1,PRT1
RFZ1,RUA FIRMEZA,RFZ1,PRT1
GCRT,GONÇALO CRISTÓVÃO,GCRT,PRT1
CDFT1,CEDOFEITA,CDFT1,VNG4
TVBO1,TV.BRÁS OLEIRO,TVBO1,MAI4
FRCL1,FRANCELOS-PRAIA,FRCL1,VNG4
VIS1,VISO (METRO),VIS1,PRT2
VIS2,VISO (METRO),VIS2,PRT2
VIS3,VISO,VIS3,PRT2
TVG4,TRAVAGEM,TVG4,MAI4
VLGE1,VALONGO (ESTAÇÃO),VLGE1,VLG1
LDDM,LIDADOR / M. MONIZ,LDDM,PRT2
MV2,MONTE DA VIRGEM,MV2,VNG2
CRRS1,CARREIROS,CRRS1,MAI4
CRRS2,CARREIROS,CRRS2,MAI4
TVFO1,TV.FORNO,TVFO1,MAI4
TSL1,TV. SIMÕES LOPES,TSL1,MAI4
TSL2,TV.SIMÕES LOPES,TSL2,MAI4
FRCL2,FRANCELOS-PRAIA,FRCL2,VNG4
CDFT2,CEDOFEITA,CDFT2,VNG4
JP3,JOSÉ PORTUGAL,JP3,VNG4
BCH1,BICHEIROS,BCH1,VNG4
BCH2,BICHEIROS,BCH2,VNG4
BELA2,BELA,BELA2,VNG4
RCD1,ROÇADAS,RCD1,VNG4
RCD2,ROÇADAS,RCD2,VNG4
SRP3,SRA. DA PENHA,SRP3,PRT2
SRP4,SRA. DA PENHA,SRP4,PRT2
LOUR3,LOURINHA,LOUR3,MAI4
LOUR4,LOURINHA,LOUR4,MAI4
PERL1,PERLINHAS,PERL1,MAI4
PERL2,PERLINHAS,PERL2,MAI4
IMTT1,IMTT,IMTT1,PRT2
IMTT2,IMTT,IMTT2,PRT2
MCE3,MUSEU C. ELÉCTRICO,MCE3,PRT1
MCE4,MUSEU C. ELÉTRICO,MCE4,PRT1
MPAZ6,MAN.P.AZEVEDO 3,MPAZ6,PRT2
MPAZ7,MAN.P.AZEVEDO 3,MPAZ7,PRT2
MPAZ5,MAN.P.AZEVEDO 3,MPAZ5,PRT2
CRTD2,CARTÓDROMO,CRTD2,MTS2
URBP4,URB.PRELADA II,URBP4,PRT2
LIEG1,PR. DE LIÉGE,LIEG1,PRT2
LIEG2,PR. DE LIÉGE,LIEG2,PRT2
DIU1,DIU,DIU1,PRT2
ESBN1,ESC. SEC. BOA NOVA,ESBN1,MTS2
ESBN2,ESC. SEC. BOA NOVA,ESBN2,MTS2
FMAI2,FRANCISCO MAIA,FMAI2,MTS2
LFC2,LEÇA F. CLUBE,LFC2,MTS2
NOF3,NÓ DO FREIXIEIRO,NOF3,MTS2
31JA3,31 DE JANEIRO,31JA3,MTS2
31JA4,31 DE JANEIRO,31JA4,MTS2
FRXI9,FREIXIEIRO,FRXI9,MTS2
NOF4,NÓ DO FREIXIEIRO,NOF4,MTS2
FTAV1,FERNANDO TÁVORA,FTAV1,MTS2
IDM1,INFANTA D. MAFALDA,IDM1,MTS2
IDM2,INFANTA D. MAFALDA,IDM2,MTS2
SRGB1,S. ROQUE G. BARROS,SRGB1,PRT3
ASZE1,PINTOR ARPAD SZENES,ASZE1,PRT2
GCR1,GASPAR CORTE REAL,GCR1,VLG1
GGT3,GÓLGOTA,GGT3,PRT1
JSP2,JOSÉ POÇAS,JSP2,VNG4
CPOV2,CASA DO POVO,CPOV2,MTS2
LEIR2,LARGO EIRÓS,LEIR2,VNG4
HMGL5,HOSP.MAGALHÃES LEMOS,HMGL5,PRT2
OLM,OLIVEIRA MONTEIRO,OLM,PRT1
ADA4,ARCA D ÁGUA,ADA4,PRT1
CART,CASA  DAS ARTES,CART,PRT1
ROR1,R.ORIENTAL,ROR1,MTS2
ROR2,R.ORIENTAL,ROR2,MTS2
LDD1,LIDADOR,LDD1,PRT2
MEIL1,MEILÃO,MEIL1,MAI4
STLZ3,CRESTINS (STA. LUZIA),STLZ3,MAI1
PLNT2,PLANETÁRIO,PLNT2,PRT1
FLUN1,FLUVIAL (NORTE),FLUN1,PRT2
FLUN2,FLUVIAL (NORTE),FLUN2,PRT2
RCH1,R.CHAQUEDAS,RCH1,VNG4
RZAM1,R. ZAMBUEIRAS,RZAM1,VNG4
RZAM2,R. ZAMBUEIRAS,RZAM2,VNG4
RRDL2,R. RODELO,RRDL2,VNG4
C62,CAIS 6,C62,MTS2
AEP,ASSOC. EMP. PORTUGAL,AEP,MTS2
ACH1,ALTO CHAQUEDAS,ACH1,VNG4
ACH2,ALTO CHAQUEDAS,ACH2,VNG4
BSEE1,BR. STO.EUGÉNIO (ESCOLA),BSEE1,PRT2
DB2,DR. BARROS,DB2,MAI1
SLOP,SIMÕES LOPES,SLOP,MAI4
IMAI1,IGREJA DA MAIA,IMAI1,MAI1
AC3,ALTINO  COELHO,AC3,MAI1
PINT1,PINTA,PINT1,MAI3
AQR1,AQUILINO RIBEIRO,AQR1,MAI3
AQR2,AQUILINO RIBEIRO,AQR2,MAI3
HIP1,HIPERMERCADO,HIP1,MAI3
PAS1,P. ABÍLIO SAMPAIO,PAS1,MAI3
QCH2,QUINTA CHÃOS,QCH2,MAI4
C24A2,CAMPO 24 DE AGOSTO,C24A2,PRT1
LMG2,LARGO DOS MOGOS,LMG2,MAI1
CPU1,CAPUCHINHOS,CPU1,PRT2
MATI,MATOSINHOS (IGREJA),MATI,MTS1
AS1,ANTÓNIO SANTOS,AS1,MAI4
VL2,VILAR,VL2,GDM1
DQL1,DUQUE LOULÉ,DQL1,PRT1
SHRM2,SRA. HORA (METRO),SHRM2,PRT2
PREC4,PRECIOSA,PREC4,MTS1
PREC3,PRECIOSA,PREC3,MTS1
AZC3,AZENHA DE CIMA,AZC3,PRT2
BS9,BOAVISTA (BOM SUCESSO),BS9,PRT1
CNT4,CANTAREIRA,CNT4,PRT2
HSS1,HOSP. SANTOS SILVA,HSS1,VNG2
HSS2,HOSP. SANTOS SILVA,HSS2,VNG2
ESPL1,ESCARPA SERRA  PILAR,ESPL1,VNG1
ESPL2,ESCARPA SERRA PILAR,ESPL2,VNG1
FOCO1,FOCO,FOCO1,PRT1
HGAI1,HOSP. GAIA,HGAI1,VNG1
PRQC1,PARQUE CAMPISMO,PRQC1,VNG4
PRQC2,PARQUE CAMPISMO,PRQC2,VNG4
MDL1,MADALENA (ESCOLAS),MDL1,VNG4
PRG3,PR. DA GALIZA,PRG3,PRT1
PAL2,PALÁCIO,PAL2,PRT1
PAL3,PALÁCIO,PAL3,PRT1
BIC2,BICALHO,BIC2,PRT1
GGT1,GÓLGOTA,GGT1,PRT1
GGT2,GÓLGOTA,GGT2,PRT1
PRG6,PR. DA GALIZA,PRG6,PRT1
PRG1,PR. DA GALIZA,PRG1,PRT1
JM1,JUNTA MASSARELOS,JM1,PRT1
MCE2,MUSEU C. ELÉCTRICO,MCE2,PRT1
PARR2,PONTE DA ARRÁBIDA,PARR2,PRT1
BVCM3,BOAVISTA CEMITÉRIO,BVCM3,PRT1
RBVM1,BOAVISTA (MERCADO),RBVM1,PRT1
BIC1,BICALHO,BIC1,PRT1
STJ3,S.TA JUSTA,STJ3,PRT3
HSJ8,HOSP. S. JOÃO (CIRCUNVALAÇÃO),HSJ8,PRT3
AZ,AZENHA,AZ,PRT3
BRRG2,BR.REGADO,BRRG2,PRT2
TIM2,TIMOR,TIM2,PRT2
CQ10,CASTELO DO QUEIJO,CQ10,PRT2
PCID3,PR. CID. SALVADOR,PCID3,PRT2
HMLM2,HOMEM DO LEME,HMLM2,PRT2
PGON2,PRAIA DE GONDARÉM,PGON2,PRT2
TIM1,TIMOR,TIM1,PRT2
CQ8,CASTELO DO QUEIJO,CQ8,PRT2
CQ5,SEA LIFE CASTELO DO QUEIJO,CQ5,PRT2
CQ3,CASTELO DO QUEIJO,CQ3,PRT2
MAL2,MALACA,MAL2,PRT2
SBR1,SAIBREIRAS,SBR1,MAI4
GAN2,GANDRA,GAN2,MAI4
CNV1,CEMITÉRIO NOVO,CNV1,MAI1
ISCP2,ISCAP,ISCP2,MAI1
CSSM1,C. SAÚDE S. MAMEDE,CSSM1,MAI1
SMMM2,S. MAMEDE (MERCADO),SMMM2,MAI1
SMM1,S. MAMEDE,SMM1,MAI1
GFR1,GODINHO FARIA,GFR1,MAI1
GFR2,GODINHO FARIA,GFR2,MAI1
CNV2,CEMITÉRIO NOVO,CNV2,MAI1
CVD2,CAVADAS,CVD2,MAI1
RCT1,R. CENTRO,RCT1,MAI1
RCT2,R.CENTRO,RCT2,MAI1
PDV1,PEDRA VERDE,PDV1,MAI1
PDV2,PEDRA VERDE,PDV2,MAI1
OG,OLIVEIRA GAIO,OG,MAI1
SMM2,S. MAMEDE,SMM2,MAI1
SMM4,S. MAMEDE,SMM4,MAI1
PCTV1,PICOUTOS (VIADUTO),PCTV1,MAI1
PCTV2,PICOUTOS (VIADUTO),PCTV2,MAI1
FGT2,FOGUETEIROS (SUL),FGT2,MAI1
BVLB2,B. V. LEÇA BALIO,BVLB2,MAI1
TPG1,TV.PINGUELA,TPG1,MTS2
TPG2,TV.PINGUELA,TPG2,MTS2
TPI1,TV.PIAS,TPI1,MAI1
LGCP1,LGO. DA CAPELA,LGCP1,MAI1
MNSO1,MANSO,MNSO1,MAI1
LGCP2,LGO. DA CAPELA,LGCP2,MAI1
AJA1,PIAS (METRO),AJA1,MAI1
AMR1,AMOROSA,AMR1,MTS2
PREA1,PARQUE DE REAL,PREA1,MTS1
PREA2,PARQUE DE REAL,PREA2,MTS1
SOUT2,SOUTO,SOUT2,MAI1
SOUT1,SOUTO,SOUT1,MAI1
TMQ1,TAMANQUEIROS,TMQ1,MAI3
QNV2,QUINTA NOVA,QNV2,MAI1
SBO1,SOBREIRO,SBO1,MAI1
GGC1,GAGO COUTINHO,GGC1,MAI4
AVLM2,AV.LIDADOR DA MAIA,AVLM2,MAI4
PRD2,PARADA,PRD2,MAI4
TRM2,TERRAMONTE,TRM2,MAI4
LVDR1,LAVADOUROS,LVDR1,MAI4
LNC1,LEONARDO COIMBRA,LNC1,MAI1
LVDR2,LAVADOUROS,LVDR2,MAI4
JLD1,JÚLIO DINIS,JLD1,MAI4
5OUT2,5 DE OUTUBRO,5OUT2,MAI4
5OUT1,5 DE OUTUBRO,5OUT1,MAI4
GGC2,GAGO COUTINHO,GGC2,MAI4
PRD3,PARADA,PRD3,MAI4
AM3,ALTO DA MAIA,AM3,MAI4
DCPF1,DR.CARLOS FELGUEIRAS,DCPF1,MAI4
DCPF2,DR. CARLOS FELGUEIRAS,DCPF2,MAI4
ARDG2,ARDEGÃES,ARDG2,MAI4
CNSL1,CONSOLATA,CNSL1,MAI4
RGLE1,ROD. GONÇALVES LAGE (ESTE),RGLE1,MAI4
AST1,ÁGUAS SANTAS,AST1,MAI4
AM1,ALTO DA MAIA,AM1,MAI4
RGLO2,ROD. GONÇALVES LAGE (OESTE),RGLO2,MAI4
MRT1,MIRANTE,MRT1,MAI4
RMOS2,R. DO MOSTEIRO,RMOS2,MAI4
AM2,ALTO DA MAIA,AM2,MAI4
AM4,ALTO DA MAIA,AM4,MAI4
FTAV2,FERNANDO TÁVORA,FTAV2,MTS2
IKEA1,MAR SHOPPING - IKEA,IKEA1,MTS2
MARS1,MAR SHOPPING NASCENTE,MARS1,MTS2
REXP4,ROT. DA EXPONOR,REXP4,MTS2
PLE1,PRAIA DE LEÇA,PLE1,MTS2
PISM1,PISCINA DAS MARÉS,PISM1,MTS2
PISM2,PISCINA DAS MARÉS,PISM2,MTS2
PLE2,PRAIA DE LEÇA,PLE2,MTS2
REXP3,ROT. DA EXPONOR,REXP3,MTS2
MARS2,MAR SHOPPING NASCENTE,MARS2,MTS2
IKEA2,MAR SHOPPING - IKEA,IKEA2,MTS2
FRXI5,FREIXIEIRO,FRXI5,MTS2
BLGT2,BR.LAGARTEIRO,BLGT2,PRT3
AZV3,AZEVEDO,AZV3,PRT3
PQO1,PARQUE ORIENTAL,PQO1,PRT3
PQO2,PARQUE ORIENTAL,PQO2,PRT3
LGTN1,LAGARTEIRO (NORTE),LGTN1,PRT3
LGTN2,LAGARTEIRO (NORTE),LGTN2,PRT3
CPTO2,CERCO DO PORTO,CPTO2,PRT3
ESCL2,ESCOLAS,ESCL2,PRT3
BLGT1,BR. LAGARTEIRO,BLGT1,PRT3
JFC,JUNTA FREG. CAMPANHÃ,JFC,PRT3
MCAM3,MONTE CAMPANHÃ,MCAM3,PRT3
EQ5,EÇA DE QUEIROS,EQ5,PRT3
EQ6,EÇA DE QUEIROS,EQ6,PRT3
AALM1,ANTÃO DE ALMADA,AALM1,MAI4
CMPO2,IGREJA CAMPO,CMPO2,VLG3
MMAI5,MIRA MAIA SHOPPING,MMAI5,MAI2
MATM6,MATOSINHOS MERCADO,MATM6,MTS1
AAL2,AV. ALIADOS,AAL2,PRT1
SCR1,S. CRISPIM,SCR1,PRT1
GRC1,GRACIOSA,GRC1,PRT1
FRX2,FREIXO,FRX2,PRT3
CVA1,CARVALHOSA,CVA1,PRT1
MRR1,MARRACUENE,MRR1,PRT1
MTB2,MTE BURGOS (CIRC.),MTB2,PRT2
HPRL2,HOSP. PRELADA,HPRL2,PRT1
VLRA4,VILARINHA,VLRA4,PRT2
UFP2,UNIV. F. PESSOA,UFP2,PRT3
CPSF1,CAPELA SRA.FÁTIMA,CPSF1,PRT2
IPRN1,IGREJA DE PARANHOS,IPRN1,PRT3
PRDR1,PRADO REPOUSO,PRDR1,PRT1
GND1,GUINDAIS,GND1,PRT1
NEV2,NEVOGILDE,NEV2,PRT2
MS1,MOUZINHO SILVEIRA,MS1,PRT1
NEV3,NEVOGILDE,NEV3,PRT2
STJ1,STA. JUSTA,STJ1,PRT3
ARNH1,AREINHO,ARNH1,PRT3
LGT1,LAGARTEIRO,LGT1,PRT3
BVBR1,BOAVISTA BRASÍLIA,BVBR1,PRT1
SRPT2,S.RA DO PORTO,SRPT2,PRT2
JAZ1,JERÓNIMO AZEVEDO,JAZ1,PRT2
BRVS,BAIRRO DO VISO,BRVS,PRT2
ROTA2,ROT. DA AREOSA,ROTA2,PRT3
TLHR1,TELHEIRA,TLHR1,PRT3
AVC1,AVAL CIMA,AVC1,PRT1
DAH2,D.AFONSO HENRIQUES,DAH2,PRT2
FCH1,FUNCHAL,FCH1,PRT2
PQC1,PARQUE DA CIDADE,PQC1,PRT2
5697,24 de Agosto,,PRT1
5698,Baguim,,MAI4
5699,Bolhão,,PRT1
5700,Brito Capelo,,MTS1
5701,Câmara Matosinhos,,MTS1
5702,Campainha,,MAI4
5703,Campanhã,,PRT1
5704,Carolina Michaelis,,PRT1
5705,Carreira,,MAI4
5706,Casa da Música,,PRT1
5707,Contumil,,PRT3
5708,Estádio do Dragão,,PRT1
5709,Estádio do Mar,,MTS1
5710,Fânzeres,,GDM1
5711,Francos,,PRT1
5712,Heroísmo,,PRT1
5713,Lapa,,PRT1
5714,Levada,,MAI4
5715,Matosinhos Sul,,MTS1
5716,Mercado,,MTS1
5717,Nasoni,,PRT3
5718,Nau Vitória,,PRT3
5719,Parque de Real,,MTS1
5720,Pedro Hispano,,MTS1
5721,Ramalde,,PRT2
5722,Rio Tinto,,MAI4
5723,Senhor de Matosinhos,,MTS1
5724,Senhora da Hora,,PRT2
5725,NorteShopping I Sete Bicas,,PRT2
5726,Trindade,,PRT1
5727,Vasco da Gama,,MTS1
5728,Venda Nova,,GDM1
5729,Viso,,PRT2
5730,Alto de Pega,,PV_VC
5731,Árvore,,VCD3
5732,Azurara,,VCD3
5733,Crestins,,VCD8
5734,Custóias,,MAI1
5735,Espaço Natureza,,VCD3
5736,Esposade,,MAI1
5737,Fonte do Cuco,,MAI1
5739,Lidador,,VCD8
5740,Mindelo,,VCD3
5741,Modivas Centro,,VCD8
5742,VC Fashion Outlet I Modivas,,VCD8
5743,Modivas Sul,,VCD8
5744,Pedras Rubras,,VCD8
5745,Portas Fronhas,,PV_VC
5746,Póvoa de Varzim,,PV_VC
5747,Santa Clara,,PV_VC
5748,São Brás,,PV_VC
5749,Varziela,,VCD3
5750,Verdes,,VCD8
5752,Vila do Conde,,PV_VC
5753,Vilar do Pinheiro,,VCD8
5754,Araújo,,MAI1
5755,Cândido dos Reis,,MAI1
5756,Castêlo da Maia,,MAI2
5757,Custió,,MAI1
5760,Fórum Maia,,MAI1
5761,ISMAI,,MAI2
5762,Mandim,,MAI2
5763,Parque Maia,,MAI1
5764,Pias,,MAI1
5765,Zona Indústrial,,MAI2
5766,Aliados,,PRT1
5767,Câmara Gaia,,VNG1
5768,Combatentes,,PRT1
5769,D. João II,,VNG1
5770,Faria Guimarães,,PRT1
5771,General Torres,,VNG1
5772,IPO,,PRT3
5773,Jardim do Morro,,VNG1
5774,João de Deus,,VNG1
5775,Marquês,,PRT1
5776,Pólo Universitário,,PRT3
5777,Salgueiros,,PRT1
5778,São Bento,,PRT1
5782,Aeroporto,,VCD8
5783,Botica,,VCD8
5791,Hospital São João,,PRT3
5792,Santo Ovídio,,VNG1
5811,Hospital Santos Silva,,VNG2
5812,Manuel Leão,,VNG1
5813,Vila d'Este,,VNG2
